{"type": "FeatureCollection", "features": [{"type": "Feature", "geometry": {"type": "Point", "coordinates": [-79.15323, -7.22499]}, "properties": {"nom": "MONTE GRANDE", "cate": "CO", "lat": -7.22499, "lon": -79.15323, "ico": "M", "cod": "100090", "cod_old": "000396", "estado": "DIFERIDO"}}, {"type": "Feature", "geometry": {"type": "Point", "coordinates": [-78.52437, -6.67411]}, "properties": {"nom": "PUENTE  MAYGASBAMBA", "cate": "HLG", "lat": -6.67411, "lon": -78.52437, "ico": "H", "cod": "221110", "cod_old": "220307", "estado": "DIFERIDO"}}, {"type": "Feature", "geometry": {"type": "Point", "coordinates": [-78.45694, -6.68778]}, "properties": {"nom": "QUEBRADA SHUGAR", "cate": "PLU", "lat": -6.68778, "lon": -78.45694, "ico": "M", "cod": "100113", "cod_old": "153108", "estado": "DIFERIDO"}}, {"type": "Feature", "geometry": {"type": "Point", "coordinates": [-78.738, -6.66878]}, "properties": {"nom": "CHUGUR", "cate": "PLU", "lat": -6.66878, "lon": -78.738, "ico": "M", "cod": "106077", "cod_old": "153208", "estado": "DIFERIDO"}}, {"type": "Feature", "geometry": {"type": "Point", "coordinates": [-78.89767, -5.67175]}, "properties": {"nom": "LA CASCARILLA", "cate": "CO", "lat": -5.67175, "lon": -78.89767, "ico": "M", "cod": "105062", "cod_old": "000349", "estado": "DIFERIDO"}}, {"type": "Feature", "geometry": {"type": "Point", "coordinates": [-79.09, -5.64389]}, "properties": {"nom": "CHONTALI", "cate": "CO", "lat": -5.64389, "lon": -79.09, "ico": "M", "cod": "105065", "cod_old": "000250", "estado": "DIFERIDO"}}, {"type": "Feature", "geometry": {"type": "Point", "coordinates": [-78.9625, -5.8837]}, "properties": {"nom": "CACAO", "cate": "HLM", "lat": -5.8837, "lon": -78.9625, "ico": "H", "cod": "220405", "cod_old": "220405", "estado": "DIFERIDO"}}, {"type": "Feature", "geometry": {"type": "Point", "coordinates": [-79.31722, -5.91778]}, "properties": {"nom": "EL LIMON", "cate": "CO", "lat": -5.91778, "lon": -79.31722, "ico": "M", "cod": "105057", "cod_old": "000241", "estado": "DIFERIDO"}}, {"type": "Feature", "geometry": {"type": "Point", "coordinates": [-79.13389, -6.04167]}, "properties": {"nom": "HACIENDA PUCARA", "cate": "PLU", "lat": -6.04167, "lon": -79.13389, "ico": "M", "cod": "106065", "cod_old": "153107", "estado": "DIFERIDO"}}, {"type": "Feature", "geometry": {"type": "Point", "coordinates": [-79.31264, -5.65886]}, "properties": {"nom": "SALLIQUE", "cate": "CO", "lat": -5.65886, "lon": -79.31264, "ico": "M", "cod": "105053", "cod_old": "002129", "estado": "DIFERIDO"}}, {"type": "Feature", "geometry": {"type": "Point", "coordinates": [-78.9888, -5.4654]}, "properties": {"nom": "COCHALAN", "cate": "PLU", "lat": -5.4654, "lon": -78.9888, "ico": "M", "cod": "105111", "cod_old": "152212", "estado": "DIFERIDO"}}, {"type": "Feature", "geometry": {"type": "Point", "coordinates": [-78.9885, -5.4651]}, "properties": {"nom": "COCHALAN", "cate": "HLG", "lat": -5.4651, "lon": -78.9885, "ico": "H", "cod": "220814", "cod_old": "220815", "estado": "DIFERIDO"}}, {"type": "Feature", "geometry": {"type": "Point", "coordinates": [-79.04045, -7.0802]}, "properties": {"nom": "LIVES", "cate": "PLU", "lat": -7.0802, "lon": -79.04045, "ico": "M", "cod": "107055", "cod_old": "153111", "estado": "DIFERIDO"}}, {"type": "Feature", "geometry": {"type": "Point", "coordinates": [-79.07395, -6.65579]}, "properties": {"nom": "CIRATO", "cate": "HLG", "lat": -6.65579, "lon": -79.07395, "ico": "H", "cod": "106122", "cod_old": "200909", "estado": "DIFERIDO"}}, {"type": "Feature", "geometry": {"type": "Point", "coordinates": [-78.86722, -6.575]}, "properties": {"nom": "CHANCAY BA\u00c3\u2018OS", "cate": "CO", "lat": -6.575, "lon": -78.86722, "ico": "M", "cod": "106022", "cod_old": "000395", "estado": "DIFERIDO"}}, {"type": "Feature", "geometry": {"type": "Point", "coordinates": [-71.23187, -14.16997]}, "properties": {"nom": "SALCCA", "cate": "PE", "lat": -14.16997, "lon": -71.23187, "ico": "M", "cod": "114131", "cod_old": "114131", "estado": "DIFERIDO"}}, {"type": "Feature", "geometry": {"type": "Point", "coordinates": [-71.72, -13.10855]}, "properties": {"nom": "CHACLLABAMBA", "cate": "CO", "lat": -13.10855, "lon": -71.72, "ico": "M", "cod": "113139", "cod_old": "155518", "estado": "DIFERIDO"}}, {"type": "Feature", "geometry": {"type": "Point", "coordinates": [-71.46778, -13.02389]}, "properties": {"nom": "CHONTACHACA", "cate": "CO", "lat": -13.02389, "lon": -71.46778, "ico": "M", "cod": "100030", "cod_old": "006671", "estado": "DIFERIDO"}}, {"type": "Feature", "geometry": {"type": "Point", "coordinates": [-75.24179, -12.58029]}, "properties": {"nom": "HUANCALPI", "cate": "CO", "lat": -12.58029, "lon": -75.24179, "ico": "M", "cod": "112142", "cod_old": "156126", "estado": "DIFERIDO"}}, {"type": "Feature", "geometry": {"type": "Point", "coordinates": [-75.53348, -13.2206]}, "properties": {"nom": "HUACHOS", "cate": "CO", "lat": -13.2206, "lon": -75.53348, "ico": "M", "cod": "113067", "cod_old": "151503", "estado": "DIFERIDO"}}, {"type": "Feature", "geometry": {"type": "Point", "coordinates": [-75.62758, -13.21198]}, "properties": {"nom": "SAN JUAN DE CASTROVIRREYNA", "cate": "CO", "lat": -13.21198, "lon": -75.62758, "ico": "M", "cod": "113082", "cod_old": "156114", "estado": "DIFERIDO"}}, {"type": "Feature", "geometry": {"type": "Point", "coordinates": [-75.07145, -13.1588]}, "properties": {"nom": "CHOCLOCOCHA", "cate": "CO", "lat": -13.1588, "lon": -75.07145, "ico": "M", "cod": "113091", "cod_old": "156130", "estado": "DIFERIDO"}}, {"type": "Feature", "geometry": {"type": "Point", "coordinates": [-74.53592, -12.55573]}, "properties": {"nom": "PAUCARBAMBA", "cate": "CO", "lat": -12.55573, "lon": -74.53592, "ico": "M", "cod": "112066", "cod_old": "000658", "estado": "DIFERIDO"}}, {"type": "Feature", "geometry": {"type": "Point", "coordinates": [-75.18698, -14.04061]}, "properties": {"nom": "CORDOVA", "cate": "PLU", "lat": -14.04061, "lon": -75.18698, "ico": "M", "cod": "114065", "cod_old": "157101", "estado": "DIFERIDO"}}, {"type": "Feature", "geometry": {"type": "Point", "coordinates": [-75.08596, -13.25932]}, "properties": {"nom": "TUNEL CERO", "cate": "CO", "lat": -13.25932, "lon": -75.08596, "ico": "M", "cod": "113016", "cod_old": "000647", "estado": "DIFERIDO"}}, {"type": "Feature", "geometry": {"type": "Point", "coordinates": [-75.29625, -13.50399]}, "properties": {"nom": "CUSICANCHA", "cate": "CO", "lat": -13.50399, "lon": -75.29625, "ico": "M", "cod": "113086", "cod_old": "156121", "estado": "DIFERIDO"}}, {"type": "Feature", "geometry": {"type": "Point", "coordinates": [-75.40029, -13.7896]}, "properties": {"nom": "CHALLACA PLU", "cate": "PLU", "lat": -13.7896, "lon": -75.40029, "ico": "M", "cod": "100025", "cod_old": "000009", "estado": "DIFERIDO"}}, {"type": "Feature", "geometry": {"type": "Point", "coordinates": [-75.38212, -13.79047]}, "properties": {"nom": "CHALLACA CO", "cate": "CO", "lat": -13.79047, "lon": -75.38212, "ico": "M", "cod": "113128", "cod_old": "006640", "estado": "DIFERIDO"}}, {"type": "Feature", "geometry": {"type": "Point", "coordinates": [-75.25083, -13.83308]}, "properties": {"nom": "SANTIAGO DE CHOCORVOS", "cate": "CO", "lat": -13.83308, "lon": -75.25083, "ico": "M", "cod": "113088", "cod_old": "156123", "estado": "DIFERIDO"}}, {"type": "Feature", "geometry": {"type": "Point", "coordinates": [-75.27418, -13.69163]}, "properties": {"nom": "TAMBO", "cate": "CO", "lat": -13.69163, "lon": -75.27418, "ico": "M", "cod": "113087", "cod_old": "156122", "estado": "DIFERIDO"}}, {"type": "Feature", "geometry": {"type": "Point", "coordinates": [-75.9425, -9.515]}, "properties": {"nom": "CHINCHAVITO", "cate": "HLM", "lat": -9.515, "lon": -75.9425, "ico": "H", "cod": "230003", "cod_old": "230003", "estado": "DIFERIDO"}}, {"type": "Feature", "geometry": {"type": "Point", "coordinates": [-76.09424, -9.70568]}, "properties": {"nom": "CARPISH", "cate": "CO", "lat": -9.70568, "lon": -76.09424, "ico": "M", "cod": "109020", "cod_old": "000454", "estado": "DIFERIDO"}}, {"type": "Feature", "geometry": {"type": "Point", "coordinates": [-76.15111, -9.84694]}, "properties": {"nom": "TARUCA", "cate": "HLM", "lat": -9.84694, "lon": -76.15111, "ico": "H", "cod": "230002", "cod_old": "230002", "estado": "DIFERIDO"}}, {"type": "Feature", "geometry": {"type": "Point", "coordinates": [-76.02935, -9.32411]}, "properties": {"nom": "PUENTE BELLA", "cate": "HLM", "lat": -9.32411, "lon": -76.02935, "ico": "H", "cod": "230004", "cod_old": "230004", "estado": "DIFERIDO"}}, {"type": "Feature", "geometry": {"type": "Point", "coordinates": [-75.9825, -9.34694]}, "properties": {"nom": "PUENTE PEREZ", "cate": "HLM", "lat": -9.34694, "lon": -75.9825, "ico": "H", "cod": "230001", "cod_old": "230001", "estado": "DIFERIDO"}}, {"type": "Feature", "geometry": {"type": "Point", "coordinates": [-75.6786, -13.9248]}, "properties": {"nom": "LOS MOLINOS", "cate": "PLU", "lat": -13.9248, "lon": -75.6786, "ico": "M", "cod": "113244", "cod_old": "113244", "estado": "DIFERIDO"}}, {"type": "Feature", "geometry": {"type": "Point", "coordinates": [-75.64787, -14.1929]}, "properties": {"nom": "SANTIAGO", "cate": "PE", "lat": -14.1929, "lon": -75.64787, "ico": "M", "cod": "114105", "cod_old": "006642", "estado": "DIFERIDO"}}, {"type": "Feature", "geometry": {"type": "Point", "coordinates": [-74.9559, -14.632]}, "properties": {"nom": "HUALLPOCA", "cate": "PLU", "lat": -14.632, "lon": -74.9559, "ico": "M", "cod": "114106", "cod_old": "156225", "estado": "DIFERIDO"}}, {"type": "Feature", "geometry": {"type": "Point", "coordinates": [-71.80654, -15.60999]}, "properties": {"nom": "MADRIGAL", "cate": "CO", "lat": -15.60999, "lon": -71.80654, "ico": "M", "cod": "115092", "cod_old": "157317", "estado": "DIFERIDO"}}, {"type": "Feature", "geometry": {"type": "Point", "coordinates": [-71.1146, -15.8412]}, "properties": {"nom": "SUMBAY", "cate": "HLG", "lat": -15.8412, "lon": -71.1146, "ico": "H", "cod": "204702", "cod_old": "204702", "estado": "DIFERIDO"}}, {"type": "Feature", "geometry": {"type": "Point", "coordinates": [-71.2167, -15.98124]}, "properties": {"nom": "PILLONES", "cate": "CO", "lat": -15.98124, "lon": -71.2167, "ico": "M", "cod": "115126", "cod_old": "158208", "estado": "DIFERIDO"}}, {"type": "Feature", "geometry": {"type": "Point", "coordinates": [-71.4637, -15.4942]}, "properties": {"nom": "PUENTE COLGANTE-SIBAYO", "cate": "HLG", "lat": -15.4942, "lon": -71.4637, "ico": "H", "cod": "204604", "cod_old": "204604", "estado": "DIFERIDO"}}, {"type": "Feature", "geometry": {"type": "Point", "coordinates": [-71.3064, -15.3142]}, "properties": {"nom": "PORPERA", "cate": "CO", "lat": -15.3142, "lon": -71.3064, "ico": "M", "cod": "115101", "cod_old": "157329", "estado": "DIFERIDO"}}, {"type": "Feature", "geometry": {"type": "Point", "coordinates": [-71.30639, -15.3142]}, "properties": {"nom": "TISCO", "cate": "CO", "lat": -15.3142, "lon": -71.30639, "ico": "M", "cod": "115098", "cod_old": "157325", "estado": "DIFERIDO"}}, {"type": "Feature", "geometry": {"type": "Point", "coordinates": [-72.91831, -15.54811]}, "properties": {"nom": "CHICHAS", "cate": "CO", "lat": -15.54811, "lon": -72.91831, "ico": "M", "cod": "115078", "cod_old": "157300", "estado": "DIFERIDO"}}, {"type": "Feature", "geometry": {"type": "Point", "coordinates": [-72.8318, -15.5033]}, "properties": {"nom": "SALAMANCA", "cate": "HLM", "lat": -15.5033, "lon": -72.8318, "ico": "H", "cod": "204501", "cod_old": "204501", "estado": "DIFERIDO"}}, {"type": "Feature", "geometry": {"type": "Point", "coordinates": [-72.87584, -15.77649]}, "properties": {"nom": "YANAQUIHUA", "cate": "CO", "lat": -15.77649, "lon": -72.87584, "ico": "M", "cod": "115128", "cod_old": "000864", "estado": "DIFERIDO"}}, {"type": "Feature", "geometry": {"type": "Point", "coordinates": [-71.6008, -16.9986]}, "properties": {"nom": "LA HACIENDITA", "cate": "CO", "lat": -16.9986, "lon": -71.6008, "ico": "M", "cod": "117006", "cod_old": "000838", "estado": "DIFERIDO"}}, {"type": "Feature", "geometry": {"type": "Point", "coordinates": [-72.7439, -15.1459]}, "properties": {"nom": "PULLHUAY (AYAHUASI)", "cate": "CO", "lat": -15.1459, "lon": -72.7439, "ico": "M", "cod": "115084", "cod_old": "157309", "estado": "DIFERIDO"}}, {"type": "Feature", "geometry": {"type": "Point", "coordinates": [-72.69262, -15.06055]}, "properties": {"nom": "PUICA", "cate": "CO", "lat": -15.06055, "lon": -72.69262, "ico": "M", "cod": "115082", "cod_old": "157307", "estado": "DIFERIDO"}}, {"type": "Feature", "geometry": {"type": "Point", "coordinates": [-74.33361, -13.91694]}, "properties": {"nom": "HUANCASANCOS", "cate": "CO", "lat": -13.91694, "lon": -74.33361, "ico": "M", "cod": "100055", "cod_old": "156218", "estado": "DIFERIDO"}}, {"type": "Feature", "geometry": {"type": "Point", "coordinates": [-74.2832, -12.9113]}, "properties": {"nom": "HUANTA", "cate": "CO", "lat": -12.9113, "lon": -74.2832, "ico": "M", "cod": "112068", "cod_old": "000660", "estado": "DIFERIDO"}}, {"type": "Feature", "geometry": {"type": "Point", "coordinates": [-74.9255, -14.2466]}, "properties": {"nom": "LLAUTA", "cate": "PLU", "lat": -14.2466, "lon": -74.9255, "ico": "M", "cod": "114067", "cod_old": "157200", "estado": "DIFERIDO"}}, {"type": "Feature", "geometry": {"type": "Point", "coordinates": [-74.2328, -14.6204]}, "properties": {"nom": "LUCANAS", "cate": "PLU", "lat": -14.6204, "lon": -74.2328, "ico": "M", "cod": "114072", "cod_old": "157206", "estado": "DIFERIDO"}}, {"type": "Feature", "geometry": {"type": "Point", "coordinates": [-73.34786, -15.18468]}, "properties": {"nom": "LAMPA", "cate": "PLU", "lat": -15.18468, "lon": -73.34786, "ico": "M", "cod": "115076", "cod_old": "157223", "estado": "DIFERIDO"}}, {"type": "Feature", "geometry": {"type": "Point", "coordinates": [-73.7268, -13.883]}, "properties": {"nom": "CHILCAYOC", "cate": "CO", "lat": -13.883, "lon": -73.7268, "ico": "M", "cod": "113101", "cod_old": "156212", "estado": "DIFERIDO"}}, {"type": "Feature", "geometry": {"type": "Point", "coordinates": [-78.7389, -6.5622]}, "properties": {"nom": "CHOTANO LAJAS", "cate": "PLU", "lat": -6.5622, "lon": -78.7389, "ico": "M", "cod": "106084", "cod_old": "153235", "estado": "DIFERIDO"}}, {"type": "Feature", "geometry": {"type": "Point", "coordinates": [-78.73377, -7.38332]}, "properties": {"nom": "CASCABAMBA", "cate": "HLM", "lat": -7.38332, "lon": -78.73377, "ico": "H", "cod": "201301", "cod_old": "201301", "estado": "DIFERIDO"}}, {"type": "Feature", "geometry": {"type": "Point", "coordinates": [-77.40025, -10.40457]}, "properties": {"nom": "OCROS", "cate": "PLU", "lat": -10.40457, "lon": -77.40025, "ico": "M", "cod": "110051", "cod_old": "155105", "estado": "DIFERIDO"}}, {"type": "Feature", "geometry": {"type": "Point", "coordinates": [-77.34389, -10.606]}, "properties": {"nom": "CAHUA", "cate": "HLG", "lat": -10.606, "lon": -77.34389, "ico": "H", "cod": "202404", "cod_old": "202404", "estado": "DIFERIDO"}}, {"type": "Feature", "geometry": {"type": "Point", "coordinates": [-77.40607, -9.85242]}, "properties": {"nom": "NUEVO PACHACOTO", "cate": "PLU", "lat": -9.85242, "lon": -77.40607, "ico": "M", "cod": "109095", "cod_old": "109095", "estado": "DIFERIDO"}}, {"type": "Feature", "geometry": {"type": "Point", "coordinates": [-78.28806, -5.16144]}, "properties": {"nom": "CHIRIACO", "cate": "CO", "lat": -5.16144, "lon": -78.28806, "ico": "M", "cod": "105104", "cod_old": "000229", "estado": "DIFERIDO"}}, {"type": "Feature", "geometry": {"type": "Point", "coordinates": [-77.93928, -4.83039]}, "properties": {"nom": "SANTA MARIA DE NIEVA", "cate": "CO", "lat": -4.83039, "lon": -77.93928, "ico": "M", "cod": "104060", "cod_old": "000256", "estado": "DIFERIDO"}}, {"type": "Feature", "geometry": {"type": "Point", "coordinates": [-78.52286, -5.7562]}, "properties": {"nom": "EL PINTOR", "cate": "PLU", "lat": -5.7562, "lon": -78.52286, "ico": "M", "cod": "105040", "cod_old": "152204", "estado": "DIFERIDO"}}, {"type": "Feature", "geometry": {"type": "Point", "coordinates": [-78.1891, -5.8904]}, "properties": {"nom": "MAGUNCHAL", "cate": "PLU", "lat": -5.8904, "lon": -78.1891, "ico": "M", "cod": "105046", "cod_old": "152210", "estado": "DIFERIDO"}}, {"type": "Feature", "geometry": {"type": "Point", "coordinates": [-78.1886, -5.8898]}, "properties": {"nom": "MAGUNCHAL", "cate": "HLG", "lat": -5.8898, "lon": -78.1886, "ico": "H", "cod": "221506", "cod_old": "221506", "estado": "DIFERIDO"}}, {"type": "Feature", "geometry": {"type": "Point", "coordinates": [-78.47097, -6.00039]}, "properties": {"nom": "EL PALTO", "cate": "CO", "lat": -6.00039, "lon": -78.47097, "ico": "M", "cod": "106121", "cod_old": "003332", "estado": "DIFERIDO"}}, {"type": "Feature", "geometry": {"type": "Point", "coordinates": [-77.50963, -9.60776]}, "properties": {"nom": "SAN PEDRO", "cate": "HLM", "lat": -9.60776, "lon": -77.50963, "ico": "H", "cod": "211404", "cod_old": "201720", "estado": "DIFERIDO"}}, {"type": "Feature", "geometry": {"type": "Point", "coordinates": [-77.52486, -9.51653]}, "properties": {"nom": "SANTIAGO ANTUNEZ DE MAYOLO", "cate": "MAP", "lat": -9.51653, "lon": -77.52486, "ico": "M", "cod": "109009", "cod_old": "000426", "estado": "DIFERIDO"}}, {"type": "Feature", "geometry": {"type": "Point", "coordinates": [-77.77536, -9.53519]}, "properties": {"nom": "CHACCHAN", "cate": "PLU", "lat": -9.53519, "lon": -77.77536, "ico": "M", "cod": "109045", "cod_old": "154107", "estado": "DIFERIDO"}}, {"type": "Feature", "geometry": {"type": "Point", "coordinates": [-77.70719, -9.58528]}, "properties": {"nom": "PIRA", "cate": "PLU", "lat": -9.58528, "lon": -77.70719, "ico": "M", "cod": "109048", "cod_old": "154110", "estado": "DIFERIDO"}}, {"type": "Feature", "geometry": {"type": "Point", "coordinates": [-77.34889, -10.15775]}, "properties": {"nom": "MAYORARCA", "cate": "PLU", "lat": -10.15775, "lon": -77.34889, "ico": "M", "cod": "110040", "cod_old": "150903", "estado": "DIFERIDO"}}, {"type": "Feature", "geometry": {"type": "Point", "coordinates": [-78.20825, -9.43371]}, "properties": {"nom": "BUENA VISTA", "cate": "CO", "lat": -9.43371, "lon": -78.20825, "ico": "M", "cod": "109014", "cod_old": "000435", "estado": "DIFERIDO"}}, {"type": "Feature", "geometry": {"type": "Point", "coordinates": [-72.57594, -13.56334]}, "properties": {"nom": "CUNYAC", "cate": "PLU", "lat": -13.56334, "lon": -72.57594, "ico": "M", "cod": "113136", "cod_old": "156224", "estado": "DIFERIDO"}}, {"type": "Feature", "geometry": {"type": "Point", "coordinates": [-71.4949, -16.3109]}, "properties": {"nom": "CHARCANI", "cate": "HLG", "lat": -16.3109, "lon": -71.4949, "ico": "H", "cod": "204710", "cod_old": "204711", "estado": "DIFERIDO"}}, {"type": "Feature", "geometry": {"type": "Point", "coordinates": [-71.1521, -16.3206]}, "properties": {"nom": "LAS SALINAS", "cate": "CO", "lat": -16.3206, "lon": -71.1521, "ico": "M", "cod": "116046", "cod_old": "158209", "estado": "DIFERIDO"}}, {"type": "Feature", "geometry": {"type": "Point", "coordinates": [-71.1891, -16.15482]}, "properties": {"nom": "EL FRAYLE", "cate": "CO", "lat": -16.15482, "lon": -71.1891, "ico": "M", "cod": "116022", "cod_old": "000849", "estado": "DIFERIDO"}}, {"type": "Feature", "geometry": {"type": "Point", "coordinates": [-71.41481, -16.05542]}, "properties": {"nom": "PATAHUASI-AREQUIPA", "cate": "CO", "lat": -16.05542, "lon": -71.41481, "ico": "M", "cod": "116073", "cod_old": "116073", "estado": "DIFERIDO"}}, {"type": "Feature", "geometry": {"type": "Point", "coordinates": [-71.5914, -16.0665]}, "properties": {"nom": "PAMPA DE ARRIEROS", "cate": "CO", "lat": -16.0665, "lon": -71.5914, "ico": "M", "cod": "116043", "cod_old": "158204", "estado": "DIFERIDO"}}, {"type": "Feature", "geometry": {"type": "Point", "coordinates": [-72.2704, -15.6833]}, "properties": {"nom": "AYO", "cate": "CO", "lat": -15.6833, "lon": -72.2704, "ico": "M", "cod": "115088", "cod_old": "157313", "estado": "DIFERIDO"}}, {"type": "Feature", "geometry": {"type": "Point", "coordinates": [-72.2686, -15.5025]}, "properties": {"nom": "CHACHAS", "cate": "CO", "lat": -15.5025, "lon": -72.2686, "ico": "M", "cod": "115087", "cod_old": "157312", "estado": "DIFERIDO"}}, {"type": "Feature", "geometry": {"type": "Point", "coordinates": [-77.04027, -10.62136]}, "properties": {"nom": "GORGOR", "cate": "PLU", "lat": -10.62136, "lon": -77.04027, "ico": "M", "cod": "110041", "cod_old": "151208", "estado": "DIFERIDO"}}, {"type": "Feature", "geometry": {"type": "Point", "coordinates": [-76.67034, -11.62091]}, "properties": {"nom": "ARAHUAY", "cate": "PLU", "lat": -11.62091, "lon": -76.67034, "ico": "M", "cod": "111057", "cod_old": "151204", "estado": "DIFERIDO"}}, {"type": "Feature", "geometry": {"type": "Point", "coordinates": [-76.75, -11.5]}, "properties": {"nom": "HUAMANTANGA", "cate": "PLU", "lat": -11.5, "lon": -76.75, "ico": "M", "cod": "111085", "cod_old": "155209", "estado": "DIFERIDO"}}, {"type": "Feature", "geometry": {"type": "Point", "coordinates": [-76.5758, -11.40743]}, "properties": {"nom": "HUAROS", "cate": "PLU", "lat": -11.40743, "lon": -76.5758, "ico": "M", "cod": "111089", "cod_old": "155218", "estado": "DIFERIDO"}}, {"type": "Feature", "geometry": {"type": "Point", "coordinates": [-76.50244, -11.39315]}, "properties": {"nom": "PARIACANCHA", "cate": "HLM", "lat": -11.39315, "lon": -76.50244, "ico": "H", "cod": "202801", "cod_old": "202801", "estado": "DIFERIDO"}}, {"type": "Feature", "geometry": {"type": "Point", "coordinates": [-76.50271, -11.39357]}, "properties": {"nom": "PARIACANCHA", "cate": "PLU", "lat": -11.39357, "lon": -76.50271, "ico": "M", "cod": "111067", "cod_old": "155112", "estado": "DIFERIDO"}}, {"type": "Feature", "geometry": {"type": "Point", "coordinates": [-76.62844, -11.55327]}, "properties": {"nom": "LACHAQUI", "cate": "PLU", "lat": -11.55327, "lon": -76.62844, "ico": "M", "cod": "111088", "cod_old": "155217", "estado": "DIFERIDO"}}, {"type": "Feature", "geometry": {"type": "Point", "coordinates": [-76.62206, -11.45264]}, "properties": {"nom": "OBRAJILLO", "cate": "PLU", "lat": -11.45264, "lon": -76.62206, "ico": "M", "cod": "111159", "cod_old": "156133", "estado": "DIFERIDO"}}, {"type": "Feature", "geometry": {"type": "Point", "coordinates": [-76.33042, -13.07475]}, "properties": {"nom": "CA\u00c3\u2018ETE", "cate": "CP", "lat": -13.07475, "lon": -76.33042, "ico": "M", "cod": "113006", "cod_old": "000616", "estado": "DIFERIDO"}}, {"type": "Feature", "geometry": {"type": "Point", "coordinates": [-76.65513, -11.2328]}, "properties": {"nom": "PIRCA", "cate": "PLU", "lat": -11.2328, "lon": -76.65513, "ico": "M", "cod": "111087", "cod_old": "155214", "estado": "DIFERIDO"}}, {"type": "Feature", "geometry": {"type": "Point", "coordinates": [-76.80804, -11.34874]}, "properties": {"nom": "PALLAC", "cate": "PLU", "lat": -11.34874, "lon": -76.80804, "ico": "M", "cod": "111083", "cod_old": "155205", "estado": "DIFERIDO"}}, {"type": "Feature", "geometry": {"type": "Point", "coordinates": [-73.37741, -3.82743]}, "properties": {"nom": "PUERTO ALMENDRA", "cate": "HLM", "lat": -3.82743, "lon": -73.37741, "ico": "H", "cod": "240302", "cod_old": "240302", "estado": "DIFERIDO"}}, {"type": "Feature", "geometry": {"type": "Point", "coordinates": [-73.29333, -3.78667]}, "properties": {"nom": "SAN ROQUE", "cate": "CP", "lat": -3.78667, "lon": -73.29333, "ico": "M", "cod": "103052", "cod_old": "000176", "estado": "DIFERIDO"}}, {"type": "Feature", "geometry": {"type": "Point", "coordinates": [-73.281, -3.7528]}, "properties": {"nom": "SEDA LORETO", "cate": "HLM", "lat": -3.7528, "lon": -73.281, "ico": "H", "cod": "240106", "cod_old": "240105", "estado": "DIFERIDO"}}, {"type": "Feature", "geometry": {"type": "Point", "coordinates": [-72.8752, -5.1512]}, "properties": {"nom": "ANGAMOS", "cate": "HLM", "lat": -5.1512, "lon": -72.8752, "ico": "H", "cod": "240401", "cod_old": "240111", "estado": "DIFERIDO"}}, {"type": "Feature", "geometry": {"type": "Point", "coordinates": [-72.8771, -5.1498]}, "properties": {"nom": "ANGAMOS", "cate": "CO", "lat": -5.1498, "lon": -72.8771, "ico": "M", "cod": "105078", "cod_old": "000269", "estado": "DIFERIDO"}}, {"type": "Feature", "geometry": {"type": "Point", "coordinates": [-77.5483, -4.4696]}, "properties": {"nom": "BORJA", "cate": "PLU", "lat": -4.4696, "lon": -77.5483, "ico": "M", "cod": "104061", "cod_old": "000270", "estado": "DIFERIDO"}}, {"type": "Feature", "geometry": {"type": "Point", "coordinates": [-72.6643, -2.4467]}, "properties": {"nom": "EL ESTRECHO", "cate": "CO", "lat": -2.4467, "lon": -72.6643, "ico": "M", "cod": "102006", "cod_old": "000110", "estado": "DIFERIDO"}}, {"type": "Feature", "geometry": {"type": "Point", "coordinates": [-76.63487, -11.19827]}, "properties": {"nom": "SANTA CRUZ", "cate": "PLU", "lat": -11.19827, "lon": -76.63487, "ico": "M", "cod": "111081", "cod_old": "155202", "estado": "DIFERIDO"}}, {"type": "Feature", "geometry": {"type": "Point", "coordinates": [-76.51359, -12.07773]}, "properties": {"nom": "ANTIOQUIA", "cate": "PE", "lat": -12.07773, "lon": -76.51359, "ico": "M", "cod": "112124", "cod_old": "156100", "estado": "DIFERIDO"}}, {"type": "Feature", "geometry": {"type": "Point", "coordinates": [-76.51514, -11.65503]}, "properties": {"nom": "CARAMPOMA", "cate": "PLU", "lat": -11.65503, "lon": -76.51514, "ico": "M", "cod": "111091", "cod_old": "155223", "estado": "DIFERIDO"}}, {"type": "Feature", "geometry": {"type": "Point", "coordinates": [-76.5023, -11.66095]}, "properties": {"nom": "SHEQUE", "cate": "PLU", "lat": -11.66095, "lon": -76.5023, "ico": "M", "cod": "111062", "cod_old": "151213", "estado": "DIFERIDO"}}, {"type": "Feature", "geometry": {"type": "Point", "coordinates": [-76.35017, -11.57046]}, "properties": {"nom": "MILLOC", "cate": "HLM", "lat": -11.57046, "lon": -76.35017, "ico": "H", "cod": "202902", "cod_old": "202902", "estado": "DIFERIDO"}}, {"type": "Feature", "geometry": {"type": "Point", "coordinates": [-76.34995, -11.57131]}, "properties": {"nom": "MILLOC", "cate": "PLU", "lat": -11.57131, "lon": -76.34995, "ico": "M", "cod": "111144", "cod_old": "155514", "estado": "DIFERIDO"}}, {"type": "Feature", "geometry": {"type": "Point", "coordinates": [-76.23332, -11.63804]}, "properties": {"nom": "CASAPALCA", "cate": "PLU", "lat": -11.63804, "lon": -76.23332, "ico": "M", "cod": "111114", "cod_old": "155446", "estado": "DIFERIDO"}}, {"type": "Feature", "geometry": {"type": "Point", "coordinates": [-76.25967, -11.73447]}, "properties": {"nom": "RIO BLANCO", "cate": "PLU", "lat": -11.73447, "lon": -76.25967, "ico": "M", "cod": "111061", "cod_old": "151210", "estado": "DIFERIDO"}}, {"type": "Feature", "geometry": {"type": "Point", "coordinates": [-76.48334, -11.61667]}, "properties": {"nom": "TINGO", "cate": "PLU", "lat": -11.61667, "lon": -76.48334, "ico": "M", "cod": "111066", "cod_old": "155111", "estado": "DIFERIDO"}}, {"type": "Feature", "geometry": {"type": "Point", "coordinates": [-76.42108, -12.12645]}, "properties": {"nom": "LANGA", "cate": "PLU", "lat": -12.12645, "lon": -76.42108, "ico": "M", "cod": "112082", "cod_old": "151214", "estado": "DIFERIDO"}}, {"type": "Feature", "geometry": {"type": "Point", "coordinates": [-76.61103, -11.73815]}, "properties": {"nom": "AUTISHA", "cate": "PLU", "lat": -11.73815, "lon": -76.61103, "ico": "M", "cod": "111077", "cod_old": "155122", "estado": "DIFERIDO"}}, {"type": "Feature", "geometry": {"type": "Point", "coordinates": [-76.60659, -11.73523]}, "properties": {"nom": "AUTISHA", "cate": "HLM", "lat": -11.73523, "lon": -76.60659, "ico": "H", "cod": "202903", "cod_old": "202903", "estado": "DIFERIDO"}}, {"type": "Feature", "geometry": {"type": "Point", "coordinates": [-76.25811, -11.80053]}, "properties": {"nom": "SAN JOSE DE PARAC", "cate": "PLU", "lat": -11.80053, "lon": -76.25811, "ico": "M", "cod": "111093", "cod_old": "155225", "estado": "DIFERIDO"}}, {"type": "Feature", "geometry": {"type": "Point", "coordinates": [-76.5636, -11.847]}, "properties": {"nom": "SAN MATEO DE OTAO", "cate": "PLU", "lat": -11.847, "lon": -76.5636, "ico": "M", "cod": "111291", "cod_old": "111291", "estado": "DIFERIDO"}}, {"type": "Feature", "geometry": {"type": "Point", "coordinates": [-76.24066, -12.18618]}, "properties": {"nom": "HUANCATA", "cate": "PLU", "lat": -12.18618, "lon": -76.24066, "ico": "M", "cod": "112080", "cod_old": "151207", "estado": "DIFERIDO"}}, {"type": "Feature", "geometry": {"type": "Point", "coordinates": [-76.5242, -11.9832]}, "properties": {"nom": "SANTIAGO DE TUNA", "cate": "PLU", "lat": -11.9832, "lon": -76.5242, "ico": "M", "cod": "111092", "cod_old": "155224", "estado": "DIFERIDO"}}, {"type": "Feature", "geometry": {"type": "Point", "coordinates": [-77.2668, -10.75484]}, "properties": {"nom": "AMBAR", "cate": "PLU", "lat": -10.75484, "lon": -77.2668, "ico": "M", "cod": "110042", "cod_old": "151211", "estado": "DIFERIDO"}}, {"type": "Feature", "geometry": {"type": "Point", "coordinates": [-76.97, -10.86578]}, "properties": {"nom": "PAMPA LIBRE", "cate": "CO", "lat": -10.86578, "lon": -76.97, "ico": "M", "cod": "110053", "cod_old": "155107", "estado": "DIFERIDO"}}, {"type": "Feature", "geometry": {"type": "Point", "coordinates": [-76.9141, -11.06525]}, "properties": {"nom": "PACHAMACHAY", "cate": "PLU", "lat": -11.06525, "lon": -76.9141, "ico": "M", "cod": "111084", "cod_old": "155207", "estado": "DIFERIDO"}}, {"type": "Feature", "geometry": {"type": "Point", "coordinates": [-76.93473, -10.95602]}, "properties": {"nom": "PACCHO", "cate": "PLU", "lat": -10.95602, "lon": -76.93473, "ico": "M", "cod": "110056", "cod_old": "155200", "estado": "DIFERIDO"}}, {"type": "Feature", "geometry": {"type": "Point", "coordinates": [-76.71983, -10.96665]}, "properties": {"nom": "PARQUIN", "cate": "PLU", "lat": -10.96665, "lon": -76.71983, "ico": "M", "cod": "110063", "cod_old": "155212", "estado": "DIFERIDO"}}, {"type": "Feature", "geometry": {"type": "Point", "coordinates": [-76.7885, -10.5213]}, "properties": {"nom": "LAGUNA SURASACA", "cate": "HLG", "lat": -10.5213, "lon": -76.7885, "ico": "H", "cod": "202601", "cod_old": "202601", "estado": "DIFERIDO"}}, {"type": "Feature", "geometry": {"type": "Point", "coordinates": [-76.7867, -10.5238]}, "properties": {"nom": "LAGUNA SURASACA", "cate": "PLU", "lat": -10.5238, "lon": -76.7867, "ico": "M", "cod": "110059", "cod_old": "155206", "estado": "DIFERIDO"}}, {"type": "Feature", "geometry": {"type": "Point", "coordinates": [-76.65537, -10.80394]}, "properties": {"nom": "LAGUNA COCHAQUILLO", "cate": "PLU", "lat": -10.80394, "lon": -76.65537, "ico": "M", "cod": "110092", "cod_old": "155291", "estado": "DIFERIDO"}}, {"type": "Feature", "geometry": {"type": "Point", "coordinates": [-76.7687, -10.66769]}, "properties": {"nom": "OYON", "cate": "CO", "lat": -10.66769, "lon": -76.7687, "ico": "M", "cod": "110020", "cod_old": "000541", "estado": "DIFERIDO"}}, {"type": "Feature", "geometry": {"type": "Point", "coordinates": [-76.9, -10.78333]}, "properties": {"nom": "ANDAJES", "cate": "PLU", "lat": -10.78333, "lon": -76.9, "ico": "M", "cod": "110057", "cod_old": "155201", "estado": "DIFERIDO"}}, {"type": "Feature", "geometry": {"type": "Point", "coordinates": [-75.71209, -12.31478]}, "properties": {"nom": "YAURICOCHA", "cate": "PLU", "lat": -12.31478, "lon": -75.71209, "ico": "M", "cod": "112096", "cod_old": "155450", "estado": "DIFERIDO"}}, {"type": "Feature", "geometry": {"type": "Point", "coordinates": [-76.13672, -12.38208]}, "properties": {"nom": "AYAVIRI", "cate": "PLU", "lat": -12.38208, "lon": -76.13672, "ico": "M", "cod": "112128", "cod_old": "156104", "estado": "DIFERIDO"}}, {"type": "Feature", "geometry": {"type": "Point", "coordinates": [-75.87215, -12.3444]}, "properties": {"nom": "CARANIA", "cate": "PE", "lat": -12.3444, "lon": -75.87215, "ico": "M", "cod": "112133", "cod_old": "156109", "estado": "DIFERIDO"}}, {"type": "Feature", "geometry": {"type": "Point", "coordinates": [-75.82617, -12.11457]}, "properties": {"nom": "VILCA", "cate": "PE", "lat": -12.11457, "lon": -75.82617, "ico": "M", "cod": "112135", "cod_old": "156111", "estado": "DIFERIDO"}}, {"type": "Feature", "geometry": {"type": "Point", "coordinates": [-76.13902, -12.29359]}, "properties": {"nom": "HUA\u00c3\u2018EC", "cate": "PLU", "lat": -12.29359, "lon": -76.13902, "ico": "M", "cod": "112127", "cod_old": "156103", "estado": "DIFERIDO"}}, {"type": "Feature", "geometry": {"type": "Point", "coordinates": [-76.22559, -12.4548]}, "properties": {"nom": "SAN PEDRO DE PILAS", "cate": "PLU", "lat": -12.4548, "lon": -76.22559, "ico": "M", "cod": "112081", "cod_old": "151212", "estado": "DIFERIDO"}}, {"type": "Feature", "geometry": {"type": "Point", "coordinates": [-76.01667, -12.11667]}, "properties": {"nom": "TANTA", "cate": "PE", "lat": -12.11667, "lon": -76.01667, "ico": "M", "cod": "112130", "cod_old": "156106", "estado": "DIFERIDO"}}, {"type": "Feature", "geometry": {"type": "Point", "coordinates": [-73.25492, -3.76397]}, "properties": {"nom": "AMAZONAS", "cate": "CO", "lat": -3.76397, "lon": -73.25492, "ico": "M", "cod": "103057", "cod_old": "000154", "estado": "DIFERIDO"}}, {"type": "Feature", "geometry": {"type": "Point", "coordinates": [-73.6961, -3.8891]}, "properties": {"nom": "SANTA MARIA NANAY", "cate": "HLM", "lat": -3.8891, "lon": -73.6961, "ico": "H", "cod": "240001", "cod_old": "240110", "estado": "DIFERIDO"}}, {"type": "Feature", "geometry": {"type": "Point", "coordinates": [-72.8409, -3.5203]}, "properties": {"nom": "MANITI", "cate": "PE", "lat": -3.5203, "lon": -72.8409, "ico": "M", "cod": "103009", "cod_old": "150201", "estado": "DIFERIDO"}}, {"type": "Feature", "geometry": {"type": "Point", "coordinates": [-73.0835, -3.5237]}, "properties": {"nom": "TIMICURILLO", "cate": "PLU", "lat": -3.5237, "lon": -73.0835, "ico": "M", "cod": "103011", "cod_old": "150204", "estado": "DIFERIDO"}}, {"type": "Feature", "geometry": {"type": "Point", "coordinates": [-73.0834, -3.5237]}, "properties": {"nom": "TIMICURILLO", "cate": "HLM", "lat": -3.5237, "lon": -73.0834, "ico": "H", "cod": "240202", "cod_old": "240202", "estado": "DIFERIDO"}}, {"type": "Feature", "geometry": {"type": "Point", "coordinates": [-73.068, -3.4786]}, "properties": {"nom": "BELLAVISTA", "cate": "HLM", "lat": -3.4786, "lon": -73.068, "ico": "H", "cod": "240111", "cod_old": "260102", "estado": "DIFERIDO"}}, {"type": "Feature", "geometry": {"type": "Point", "coordinates": [-73.068, -3.4788]}, "properties": {"nom": "BELLAVISTA", "cate": "PLU", "lat": -3.4788, "lon": -73.068, "ico": "M", "cod": "103012", "cod_old": "150205", "estado": "DIFERIDO"}}, {"type": "Feature", "geometry": {"type": "Point", "coordinates": [-73.2337, -3.4863]}, "properties": {"nom": "LA LIBERTAD", "cate": "PLU", "lat": -3.4863, "lon": -73.2337, "ico": "M", "cod": "103014", "cod_old": "150207", "estado": "DIFERIDO"}}, {"type": "Feature", "geometry": {"type": "Point", "coordinates": [-73.2339, -3.4863]}, "properties": {"nom": "LA LIBERTAD", "cate": "HLM", "lat": -3.4863, "lon": -73.2339, "ico": "H", "cod": "240112", "cod_old": "260201", "estado": "DIFERIDO"}}, {"type": "Feature", "geometry": {"type": "Point", "coordinates": [-73.1526, -3.5169]}, "properties": {"nom": "SANTA CRUZ", "cate": "PLU", "lat": -3.5169, "lon": -73.1526, "ico": "M", "cod": "103013", "cod_old": "150206", "estado": "DIFERIDO"}}, {"type": "Feature", "geometry": {"type": "Point", "coordinates": [-73.15411, -3.51725]}, "properties": {"nom": "SANTA CRUZ", "cate": "HLM", "lat": -3.51725, "lon": -73.15411, "ico": "H", "cod": "240109", "cod_old": "240109", "estado": "DIFERIDO"}}, {"type": "Feature", "geometry": {"type": "Point", "coordinates": [-73.6971, -3.8889]}, "properties": {"nom": "SANTA MARIA DE NANAY", "cate": "PLU", "lat": -3.8889, "lon": -73.6971, "ico": "M", "cod": "103030", "cod_old": "152409", "estado": "DIFERIDO"}}, {"type": "Feature", "geometry": {"type": "Point", "coordinates": [-73.67919, -2.48757]}, "properties": {"nom": "SANTA CLOTILDE", "cate": "CO", "lat": -2.48757, "lon": -73.67919, "ico": "M", "cod": "102009", "cod_old": "000177", "estado": "DIFERIDO"}}, {"type": "Feature", "geometry": {"type": "Point", "coordinates": [-73.679, -2.487]}, "properties": {"nom": "SANTA CLOTILDE", "cate": "HLM", "lat": -2.487, "lon": -73.679, "ico": "H", "cod": "240110", "cod_old": "260101", "estado": "DIFERIDO"}}, {"type": "Feature", "geometry": {"type": "Point", "coordinates": [-73.25625, -3.69279]}, "properties": {"nom": "SANTO TOMAS PUNCHANA", "cate": "HLM", "lat": -3.69279, "lon": -73.25625, "ico": "H", "cod": "240304", "cod_old": "240304", "estado": "DIFERIDO"}}, {"type": "Feature", "geometry": {"type": "Point", "coordinates": [-73.23694, -3.72722]}, "properties": {"nom": "ENAPU PERU", "cate": "HLM", "lat": -3.72722, "lon": -73.23694, "ico": "H", "cod": "240102", "cod_old": "240101", "estado": "DIFERIDO"}}, {"type": "Feature", "geometry": {"type": "Point", "coordinates": [-76.101, -5.898]}, "properties": {"nom": "YURIMAGUAS ENP", "cate": "HLM", "lat": -5.898, "lon": -76.101, "ico": "H", "cod": "230602", "cod_old": "230602", "estado": "DIFERIDO"}}, {"type": "Feature", "geometry": {"type": "Point", "coordinates": [-76.2505, -6.067]}, "properties": {"nom": "SHANUSI", "cate": "CO", "lat": -6.067, "lon": -76.2505, "ico": "M", "cod": "100132", "cod_old": "153315", "estado": "DIFERIDO"}}, {"type": "Feature", "geometry": {"type": "Point", "coordinates": [-75.6661, -5.2194]}, "properties": {"nom": "LAGUNAS", "cate": "PLU", "lat": -5.2194, "lon": -75.6661, "ico": "M", "cod": "100080", "cod_old": "152304", "estado": "DIFERIDO"}}, {"type": "Feature", "geometry": {"type": "Point", "coordinates": [-77.548, -4.47]}, "properties": {"nom": "BORJA", "cate": "HLM", "lat": -4.47, "lon": -77.548, "ico": "H", "cod": "220107", "cod_old": "220107", "estado": "DIFERIDO"}}, {"type": "Feature", "geometry": {"type": "Point", "coordinates": [-73.5831, -4.5146]}, "properties": {"nom": "NAUTA", "cate": "HLM", "lat": -4.5146, "lon": -73.5831, "ico": "H", "cod": "221402", "cod_old": "221401", "estado": "DIFERIDO"}}, {"type": "Feature", "geometry": {"type": "Point", "coordinates": [-73.90751, -4.51301]}, "properties": {"nom": "SAN REGIS", "cate": "PE", "lat": -4.51301, "lon": -73.90751, "ico": "M", "cod": "104098", "cod_old": "150212", "estado": "DIFERIDO"}}, {"type": "Feature", "geometry": {"type": "Point", "coordinates": [-73.9076, -4.5132]}, "properties": {"nom": "SAN REGIS", "cate": "HLM", "lat": -4.5132, "lon": -73.9076, "ico": "H", "cod": "220105", "cod_old": "220105", "estado": "DIFERIDO"}}, {"type": "Feature", "geometry": {"type": "Point", "coordinates": [-74.3806, -4.5922]}, "properties": {"nom": "SANTA RITA DE CASTILLA", "cate": "PE", "lat": -4.5922, "lon": -74.3806, "ico": "M", "cod": "104065", "cod_old": "152401", "estado": "DIFERIDO"}}, {"type": "Feature", "geometry": {"type": "Point", "coordinates": [-69.95629, -4.22636]}, "properties": {"nom": "SANTA ROSA", "cate": "PLU", "lat": -4.22636, "lon": -69.95629, "ico": "M", "cod": "104010", "cod_old": "150209", "estado": "DIFERIDO"}}, {"type": "Feature", "geometry": {"type": "Point", "coordinates": [-69.9535, -4.2242]}, "properties": {"nom": "SANTA ROSA", "cate": "HLM", "lat": -4.2242, "lon": -69.9535, "ico": "H", "cod": "240108", "cod_old": "240108", "estado": "DIFERIDO"}}, {"type": "Feature", "geometry": {"type": "Point", "coordinates": [-73.83612, -5.04308]}, "properties": {"nom": "REQUENA", "cate": "CO", "lat": -5.04308, "lon": -73.83612, "ico": "M", "cod": "105095", "cod_old": "000280", "estado": "DIFERIDO"}}, {"type": "Feature", "geometry": {"type": "Point", "coordinates": [-73.84, -5.0411]}, "properties": {"nom": "REQUENA", "cate": "HLM", "lat": -5.0411, "lon": -73.84, "ico": "H", "cod": "250101", "cod_old": "250101", "estado": "DIFERIDO"}}, {"type": "Feature", "geometry": {"type": "Point", "coordinates": [-74.1569, -5.4077]}, "properties": {"nom": "FLOR DE PUNGA", "cate": "HLM", "lat": -5.4077, "lon": -74.1569, "ico": "H", "cod": "251100", "cod_old": "231302", "estado": "DIFERIDO"}}, {"type": "Feature", "geometry": {"type": "Point", "coordinates": [-74.1591, -5.4055]}, "properties": {"nom": "FLOR DE PUNGA", "cate": "PE", "lat": -5.4055, "lon": -74.1591, "ico": "M", "cod": "105092", "cod_old": "152405", "estado": "DIFERIDO"}}, {"type": "Feature", "geometry": {"type": "Point", "coordinates": [-74.289, -5.7921]}, "properties": {"nom": "TAMANCO", "cate": "PLU", "lat": -5.7921, "lon": -74.289, "ico": "M", "cod": "105091", "cod_old": "152403", "estado": "DIFERIDO"}}, {"type": "Feature", "geometry": {"type": "Point", "coordinates": [-74.3444, -5.2539]}, "properties": {"nom": "BRETA\u00c3\u2018A", "cate": "PE", "lat": -5.2539, "lon": -74.3444, "ico": "M", "cod": "105090", "cod_old": "152402", "estado": "DIFERIDO"}}, {"type": "Feature", "geometry": {"type": "Point", "coordinates": [-73.5321, -4.724]}, "properties": {"nom": "BAGAZAN", "cate": "PE", "lat": -4.724, "lon": -73.5321, "ico": "M", "cod": "104067", "cod_old": "152406", "estado": "DIFERIDO"}}, {"type": "Feature", "geometry": {"type": "Point", "coordinates": [-73.6715, -4.902]}, "properties": {"nom": "GENARO HERRERA", "cate": "HLM", "lat": -4.902, "lon": -73.6715, "ico": "H", "cod": "251104", "cod_old": "231303", "estado": "DIFERIDO"}}, {"type": "Feature", "geometry": {"type": "Point", "coordinates": [-75.0064, -7.3526]}, "properties": {"nom": "CONTAMANA", "cate": "CO", "lat": -7.3526, "lon": -75.0064, "ico": "M", "cod": "100034", "cod_old": "000387", "estado": "DIFERIDO"}}, {"type": "Feature", "geometry": {"type": "Point", "coordinates": [-70.5494, -16.8439]}, "properties": {"nom": "PAMPA UMALZO (TITIJONES)", "cate": "CO", "lat": -16.8439, "lon": -70.5494, "ico": "M", "cod": "116052", "cod_old": "158309", "estado": "DIFERIDO"}}, {"type": "Feature", "geometry": {"type": "Point", "coordinates": [-70.8369, -17.1277]}, "properties": {"nom": "TUMILACA", "cate": "PLU", "lat": -17.1277, "lon": -70.8369, "ico": "M", "cod": "117031", "cod_old": "158314", "estado": "DIFERIDO"}}, {"type": "Feature", "geometry": {"type": "Point", "coordinates": [-70.8536, -17.0073]}, "properties": {"nom": "OTORA", "cate": "HLG", "lat": -17.0073, "lon": -70.8536, "ico": "H", "cod": "214700", "cod_old": "204812", "estado": "DIFERIDO"}}, {"type": "Feature", "geometry": {"type": "Point", "coordinates": [-70.8504, -17.0041]}, "properties": {"nom": "OTORA", "cate": "PLU", "lat": -17.0041, "lon": -70.8504, "ico": "M", "cod": "117024", "cod_old": "158302", "estado": "DIFERIDO"}}, {"type": "Feature", "geometry": {"type": "Point", "coordinates": [-70.5427, -16.14109]}, "properties": {"nom": "ICHU\u00c3\u2018A", "cate": "CO", "lat": -16.14109, "lon": -70.5427, "ico": "M", "cod": "100059", "cod_old": "158310", "estado": "DIFERIDO"}}, {"type": "Feature", "geometry": {"type": "Point", "coordinates": [-80.61654, -5.17528]}, "properties": {"nom": "MIRAFLORES", "cate": "MAP", "lat": -5.17528, "lon": -80.61654, "ico": "M", "cod": "105100", "cod_old": "000207", "estado": "DIFERIDO"}}, {"type": "Feature", "geometry": {"type": "Point", "coordinates": [-79.50572, -5.83964]}, "properties": {"nom": "PORCULLA", "cate": "PLU", "lat": -5.83964, "lon": -79.50572, "ico": "M", "cod": "100105", "cod_old": "152132", "estado": "DIFERIDO"}}, {"type": "Feature", "geometry": {"type": "Point", "coordinates": [-79.36056, -5.36681]}, "properties": {"nom": "HACIENDA SHUMAYA", "cate": "PLU", "lat": -5.36681, "lon": -79.36056, "ico": "M", "cod": "105024", "cod_old": "152128", "estado": "DIFERIDO"}}, {"type": "Feature", "geometry": {"type": "Point", "coordinates": [-79.34742, -5.47718]}, "properties": {"nom": "TULUCE", "cate": "PLU", "lat": -5.47718, "lon": -79.34742, "ico": "M", "cod": "105023", "cod_old": "152127", "estado": "DIFERIDO"}}, {"type": "Feature", "geometry": {"type": "Point", "coordinates": [-79.7857, -5.3209]}, "properties": {"nom": "HACIENDA BIGOTE", "cate": "PLU", "lat": -5.3209, "lon": -79.7857, "ico": "M", "cod": "105015", "cod_old": "152111", "estado": "DIFERIDO"}}, {"type": "Feature", "geometry": {"type": "Point", "coordinates": [-80.3979, -4.47749]}, "properties": {"nom": "ALAMOR", "cate": "PLU", "lat": -4.47749, "lon": -80.3979, "ico": "M", "cod": "104044", "cod_old": "152153", "estado": "DIFERIDO"}}, {"type": "Feature", "geometry": {"type": "Point", "coordinates": [-80.39915, -4.47401]}, "properties": {"nom": "ALAMOR", "cate": "HLM", "lat": -4.47401, "lon": -80.39915, "ico": "H", "cod": "200322", "cod_old": "200324", "estado": "DIFERIDO"}}, {"type": "Feature", "geometry": {"type": "Point", "coordinates": [-80.73945, -4.51556]}, "properties": {"nom": "PANANGA", "cate": "PLU", "lat": -4.51556, "lon": -80.73945, "ico": "M", "cod": "104014", "cod_old": "152101", "estado": "DIFERIDO"}}, {"type": "Feature", "geometry": {"type": "Point", "coordinates": [-70.3678, -14.6717]}, "properties": {"nom": "PROGRESO", "cate": "CO", "lat": -14.6717, "lon": -70.3678, "ico": "M", "cod": "114040", "cod_old": "000778", "estado": "DIFERIDO"}}, {"type": "Feature", "geometry": {"type": "Point", "coordinates": [-70.41, -13.4609]}, "properties": {"nom": "SAN GABAN", "cate": "CO", "lat": -13.4609, "lon": -70.41, "ico": "M", "cod": "113119", "cod_old": "156401", "estado": "DIFERIDO"}}, {"type": "Feature", "geometry": {"type": "Point", "coordinates": [-69.03682, -16.56327]}, "properties": {"nom": "DESAGUADERO", "cate": "CO", "lat": -16.56327, "lon": -69.03682, "ico": "M", "cod": "116060", "cod_old": "000883", "estado": "DIFERIDO"}}, {"type": "Feature", "geometry": {"type": "Point", "coordinates": [-69.31697, -16.57225]}, "properties": {"nom": "CALLACAME", "cate": "PLU", "lat": -16.57225, "lon": -69.31697, "ico": "M", "cod": "116075", "cod_old": "116075", "estado": "DIFERIDO"}}, {"type": "Feature", "geometry": {"type": "Point", "coordinates": [-69.7391, -17.1827]}, "properties": {"nom": "CAPAZO", "cate": "CO", "lat": -17.1827, "lon": -69.7391, "ico": "M", "cod": "117041", "cod_old": "158326", "estado": "DIFERIDO"}}, {"type": "Feature", "geometry": {"type": "Point", "coordinates": [-69.3612, -15.0118]}, "properties": {"nom": "COJATA", "cate": "CO", "lat": -15.0118, "lon": -69.3612, "ico": "M", "cod": "115053", "cod_old": "000827", "estado": "DIFERIDO"}}, {"type": "Feature", "geometry": {"type": "Point", "coordinates": [-69.8739, -15.2558]}, "properties": {"nom": "RAMIS", "cate": "PLU", "lat": -15.2558, "lon": -69.8739, "ico": "M", "cod": "270200", "cod_old": "157733", "estado": "DIFERIDO"}}, {"type": "Feature", "geometry": {"type": "Point", "coordinates": [-69.97247, -15.31167]}, "properties": {"nom": "TARACO", "cate": "CO", "lat": -15.31167, "lon": -69.97247, "ico": "M", "cod": "115047", "cod_old": "000816", "estado": "DIFERIDO"}}, {"type": "Feature", "geometry": {"type": "Point", "coordinates": [-70.5993, -15.6941]}, "properties": {"nom": "SANTA LUCIA", "cate": "CO", "lat": -15.6941, "lon": -70.5993, "ico": "M", "cod": "115140", "cod_old": "000865", "estado": "DIFERIDO"}}, {"type": "Feature", "geometry": {"type": "Point", "coordinates": [-70.79278, -14.6178]}, "properties": {"nom": "SANTA ROSA", "cate": "CO", "lat": -14.6178, "lon": -70.79278, "ico": "M", "cod": "114047", "cod_old": "000823", "estado": "DIFERIDO"}}, {"type": "Feature", "geometry": {"type": "Point", "coordinates": [-70.7285, -14.7879]}, "properties": {"nom": "CHUQUIBAMBILLA", "cate": "CP", "lat": -14.7879, "lon": -70.7285, "ico": "M", "cod": "114035", "cod_old": "000764", "estado": "DIFERIDO"}}, {"type": "Feature", "geometry": {"type": "Point", "coordinates": [-69.48898, -15.56221]}, "properties": {"nom": "ISLA SOTO", "cate": "CO", "lat": -15.56221, "lon": -69.48898, "ico": "M", "cod": "100065", "cod_old": "000817", "estado": "DIFERIDO"}}, {"type": "Feature", "geometry": {"type": "Point", "coordinates": [-70.2078, -15.4441]}, "properties": {"nom": "JULIACA", "cate": "CO", "lat": -15.4441, "lon": -70.2078, "ico": "M", "cod": "115138", "cod_old": "007454", "estado": "DIFERIDO"}}, {"type": "Feature", "geometry": {"type": "Point", "coordinates": [-70.224, -15.4718]}, "properties": {"nom": "PUENTE ISLA CABANILLAS", "cate": "HLM", "lat": -15.4718, "lon": -70.224, "ico": "H", "cod": "210406", "cod_old": "210406", "estado": "DIFERIDO"}}, {"type": "Feature", "geometry": {"type": "Point", "coordinates": [-70.2092, -15.4437]}, "properties": {"nom": "LAMPA", "cate": "HLM", "lat": -15.4437, "lon": -70.2092, "ico": "H", "cod": "210405", "cod_old": "210405", "estado": "DIFERIDO"}}, {"type": "Feature", "geometry": {"type": "Point", "coordinates": [-69.55, -14.4888]}, "properties": {"nom": "CUYO CUYO", "cate": "CO", "lat": -14.4888, "lon": -69.55, "ico": "M", "cod": "114096", "cod_old": "157418", "estado": "DIFERIDO"}}, {"type": "Feature", "geometry": {"type": "Point", "coordinates": [-69.687, -14.1397]}, "properties": {"nom": "LIMBANI", "cate": "CO", "lat": -14.1397, "lon": -69.687, "ico": "M", "cod": "114049", "cod_old": "000825", "estado": "DIFERIDO"}}, {"type": "Feature", "geometry": {"type": "Point", "coordinates": [-69.6902, -14.1481]}, "properties": {"nom": "LIMBANI", "cate": "HLG", "lat": -14.1481, "lon": -69.6902, "ico": "H", "cod": "260501", "cod_old": "260501", "estado": "DIFERIDO"}}, {"type": "Feature", "geometry": {"type": "Point", "coordinates": [-69.16178, -14.22529]}, "properties": {"nom": "TAMBOPATA", "cate": "CO", "lat": -14.22529, "lon": -69.16178, "ico": "M", "cod": "114043", "cod_old": "000790", "estado": "DIFERIDO"}}, {"type": "Feature", "geometry": {"type": "Point", "coordinates": [-69.07472, -16.30783]}, "properties": {"nom": "TAHUACO - YUNGUYO", "cate": "CO", "lat": -16.30783, "lon": -69.07472, "ico": "M", "cod": "116030", "cod_old": "000882", "estado": "DIFERIDO"}}, {"type": "Feature", "geometry": {"type": "Point", "coordinates": [-68.85034, -16.3299]}, "properties": {"nom": "ISLA SUANA", "cate": "CO", "lat": -16.3299, "lon": -68.85034, "ico": "M", "cod": "116009", "cod_old": "000822", "estado": "DIFERIDO"}}, {"type": "Feature", "geometry": {"type": "Point", "coordinates": [-76.4139, -7.4071]}, "properties": {"nom": "DOS DE MAYO (J. OLAYA)", "cate": "CO", "lat": -7.4071, "lon": -76.4139, "ico": "M", "cod": "107069", "cod_old": "153225", "estado": "DIFERIDO"}}, {"type": "Feature", "geometry": {"type": "Point", "coordinates": [-76.4771, -7.2544]}, "properties": {"nom": "CUZCO-BIAVO", "cate": "PLU", "lat": -7.2544, "lon": -76.4771, "ico": "M", "cod": "107095", "cod_old": "153345", "estado": "DIFERIDO"}}, {"type": "Feature", "geometry": {"type": "Point", "coordinates": [-76.47778, -7.25497]}, "properties": {"nom": "BIAVO", "cate": "HLG", "lat": -7.25497, "lon": -76.47778, "ico": "H", "cod": "221804", "cod_old": "221804", "estado": "DIFERIDO"}}, {"type": "Feature", "geometry": {"type": "Point", "coordinates": [-76.49275, -7.16319]}, "properties": {"nom": "LA UNION", "cate": "CO", "lat": -7.16319, "lon": -76.49275, "ico": "M", "cod": "107013", "cod_old": "000384", "estado": "DIFERIDO"}}, {"type": "Feature", "geometry": {"type": "Point", "coordinates": [-76.47234, -7.09629]}, "properties": {"nom": "NUEVO LIMA", "cate": "CO", "lat": -7.09629, "lon": -76.47234, "ico": "M", "cod": "107089", "cod_old": "153312", "estado": "DIFERIDO"}}, {"type": "Feature", "geometry": {"type": "Point", "coordinates": [-76.48076, -6.5083]}, "properties": {"nom": "CU\u00c3\u2018UMBUQUE", "cate": "PLU", "lat": -6.5083, "lon": -76.48076, "ico": "M", "cod": "106094", "cod_old": "153311", "estado": "DIFERIDO"}}, {"type": "Feature", "geometry": {"type": "Point", "coordinates": [-76.60028, -6.41312]}, "properties": {"nom": "SHANAO", "cate": "PLU", "lat": -6.41312, "lon": -76.60028, "ico": "M", "cod": "106115", "cod_old": "153328", "estado": "DIFERIDO"}}, {"type": "Feature", "geometry": {"type": "Point", "coordinates": [-76.60001, -6.41291]}, "properties": {"nom": "SHANAO", "cate": "HLG", "lat": -6.41291, "lon": -76.60001, "ico": "H", "cod": "221802", "cod_old": "221802", "estado": "DIFERIDO"}}, {"type": "Feature", "geometry": {"type": "Point", "coordinates": [-76.7617, -6.2818]}, "properties": {"nom": "PACAYZAPA", "cate": "CO", "lat": -6.2818, "lon": -76.7617, "ico": "M", "cod": "110127", "cod_old": "110127", "estado": "DIFERIDO"}}, {"type": "Feature", "geometry": {"type": "Point", "coordinates": [-76.7349, -7.2636]}, "properties": {"nom": "HUAYABAMBA", "cate": "PLU", "lat": -7.2636, "lon": -76.7349, "ico": "M", "cod": "107101", "cod_old": "153350", "estado": "DIFERIDO"}}, {"type": "Feature", "geometry": {"type": "Point", "coordinates": [-76.65311, -7.48433]}, "properties": {"nom": "CAMPANILLA", "cate": "CO", "lat": -7.48433, "lon": -76.65311, "ico": "M", "cod": "100019", "cod_old": "003304", "estado": "DIFERIDO"}}, {"type": "Feature", "geometry": {"type": "Point", "coordinates": [-76.3302, -6.9199]}, "properties": {"nom": "PICOTA", "cate": "PLU", "lat": -6.9199, "lon": -76.3302, "ico": "M", "cod": "106095", "cod_old": "153313", "estado": "DIFERIDO"}}, {"type": "Feature", "geometry": {"type": "Point", "coordinates": [-77.39319, -5.80964]}, "properties": {"nom": "NARANJILLO", "cate": "CO", "lat": -5.80964, "lon": -77.39319, "ico": "M", "cod": "105103", "cod_old": "000219", "estado": "DIFERIDO"}}, {"type": "Feature", "geometry": {"type": "Point", "coordinates": [-75.8025, -6.21531]}, "properties": {"nom": "PELEJO", "cate": "CO", "lat": -6.21531, "lon": -75.8025, "ico": "M", "cod": "106112", "cod_old": "153322", "estado": "DIFERIDO"}}, {"type": "Feature", "geometry": {"type": "Point", "coordinates": [-75.84556, -6.45278]}, "properties": {"nom": "PUCALLPA - HUIMBAYOC", "cate": "PLU", "lat": -6.45278, "lon": -75.84556, "ico": "M", "cod": "106110", "cod_old": "153320", "estado": "DIFERIDO"}}, {"type": "Feature", "geometry": {"type": "Point", "coordinates": [-75.73143, -6.37587]}, "properties": {"nom": "NAVARRO", "cate": "CO", "lat": -6.37587, "lon": -75.73143, "ico": "M", "cod": "106018", "cod_old": "000386", "estado": "DIFERIDO"}}, {"type": "Feature", "geometry": {"type": "Point", "coordinates": [-76.382, -6.4725]}, "properties": {"nom": "CUMBAZA", "cate": "HLG", "lat": -6.4725, "lon": -76.382, "ico": "H", "cod": "221801", "cod_old": "221801", "estado": "DIFERIDO"}}, {"type": "Feature", "geometry": {"type": "Point", "coordinates": [-76.4072, -6.41274]}, "properties": {"nom": "SAN ANTONIO", "cate": "CO", "lat": -6.41274, "lon": -76.4072, "ico": "M", "cod": "106096", "cod_old": "153314", "estado": "DIFERIDO"}}, {"type": "Feature", "geometry": {"type": "Point", "coordinates": [-76.2162, -6.6927]}, "properties": {"nom": "LAGUNA SAUCE", "cate": "HLM", "lat": -6.6927, "lon": -76.2162, "ico": "H", "cod": "221806", "cod_old": "221807", "estado": "DIFERIDO"}}, {"type": "Feature", "geometry": {"type": "Point", "coordinates": [-69.6264, -17.5807]}, "properties": {"nom": "CANAL UCHUSUMA", "cate": "HLM", "lat": -17.5807, "lon": -69.6264, "ico": "H", "cod": "215000", "cod_old": "205206", "estado": "DIFERIDO"}}, {"type": "Feature", "geometry": {"type": "Point", "coordinates": [-69.78039, -17.53291]}, "properties": {"nom": "PAUCARANI", "cate": "CO", "lat": -17.53291, "lon": -69.78039, "ico": "M", "cod": "117043", "cod_old": "158328", "estado": "DIFERIDO"}}, {"type": "Feature", "geometry": {"type": "Point", "coordinates": [-70.36269, -17.28121]}, "properties": {"nom": "CAIRANI", "cate": "CO", "lat": -17.28121, "lon": -70.36269, "ico": "M", "cod": "117030", "cod_old": "158313", "estado": "DIFERIDO"}}, {"type": "Feature", "geometry": {"type": "Point", "coordinates": [-70.23731, -17.32913]}, "properties": {"nom": "ARICOTA", "cate": "CO", "lat": -17.32913, "lon": -70.23731, "ico": "M", "cod": "117054", "cod_old": "117054", "estado": "DIFERIDO"}}, {"type": "Feature", "geometry": {"type": "Point", "coordinates": [-69.6435, -17.28727]}, "properties": {"nom": "CHUAPALCA ALTERNATIVA ALTA", "cate": "HLM", "lat": -17.28727, "lon": -69.6435, "ico": "M", "cod": "117060", "cod_old": "117060", "estado": "DIFERIDO"}}, {"type": "Feature", "geometry": {"type": "Point", "coordinates": [-69.6468, -17.2981]}, "properties": {"nom": "CHUAPALCA", "cate": "HLM", "lat": -17.2981, "lon": -69.6468, "ico": "H", "cod": "270900", "cod_old": "211706", "estado": "DIFERIDO"}}, {"type": "Feature", "geometry": {"type": "Point", "coordinates": [-69.4864, -17.3824]}, "properties": {"nom": "LA FRONTERA", "cate": "CO", "lat": -17.3824, "lon": -69.4864, "ico": "M", "cod": "117049", "cod_old": "158332", "estado": "DIFERIDO"}}, {"type": "Feature", "geometry": {"type": "Point", "coordinates": [-69.6618, -17.3088]}, "properties": {"nom": "CHUAPALCA", "cate": "CO", "lat": -17.3088, "lon": -69.6618, "ico": "M", "cod": "117013", "cod_old": "000860", "estado": "DIFERIDO"}}, {"type": "Feature", "geometry": {"type": "Point", "coordinates": [-69.9868, -17.5526]}, "properties": {"nom": "TALABAYA", "cate": "PE", "lat": -17.5526, "lon": -69.9868, "ico": "M", "cod": "117039", "cod_old": "158323", "estado": "DIFERIDO"}}, {"type": "Feature", "geometry": {"type": "Point", "coordinates": [-70.04302, -17.07906]}, "properties": {"nom": "VILACOTA", "cate": "CO", "lat": -17.07906, "lon": -70.04302, "ico": "M", "cod": "117014", "cod_old": "000861", "estado": "DIFERIDO"}}, {"type": "Feature", "geometry": {"type": "Point", "coordinates": [-70.0424, -17.0786]}, "properties": {"nom": "VILACOTA", "cate": "HLM", "lat": -17.0786, "lon": -70.0424, "ico": "H", "cod": "211705", "cod_old": "211707", "estado": "DIFERIDO"}}, {"type": "Feature", "geometry": {"type": "Point", "coordinates": [-80.40182, -3.97594]}, "properties": {"nom": "CABO INGA", "cate": "CO", "lat": -3.97594, "lon": -80.40182, "ico": "M", "cod": "103043", "cod_old": "000139", "estado": "DIFERIDO"}}, {"type": "Feature", "geometry": {"type": "Point", "coordinates": [-80.2802, -3.45171]}, "properties": {"nom": "EL SALTO", "cate": "CO", "lat": -3.45171, "lon": -80.2802, "ico": "M", "cod": "103041", "cod_old": "000135", "estado": "DIFERIDO"}}, {"type": "Feature", "geometry": {"type": "Point", "coordinates": [-80.19857, -3.68277]}, "properties": {"nom": "MATAPALO", "cate": "PLU", "lat": -3.68277, "lon": -80.19857, "ico": "M", "cod": "103008", "cod_old": "150112", "estado": "DIFERIDO"}}, {"type": "Feature", "geometry": {"type": "Point", "coordinates": [-74.57185, -8.41323]}, "properties": {"nom": "PUCALLPA", "cate": "CP", "lat": -8.41323, "lon": -74.57185, "ico": "M", "cod": "108021", "cod_old": "000449", "estado": "DIFERIDO"}}, {"type": "Feature", "geometry": {"type": "Point", "coordinates": [-74.86611, -8.5825]}, "properties": {"nom": "EL BOQUERON", "cate": "CO", "lat": -8.5825, "lon": -74.86611, "ico": "M", "cod": "109090", "cod_old": "109090", "estado": "DIFERIDO"}}, {"type": "Feature", "geometry": {"type": "Point", "coordinates": [-75.09681, -8.44999]}, "properties": {"nom": "EL MARONAL", "cate": "CP", "lat": -8.44999, "lon": -75.09681, "ico": "M", "cod": "108027", "cod_old": "000459", "estado": "DIFERIDO"}}, {"type": "Feature", "geometry": {"type": "Point", "coordinates": [-75.62102, -13.60118]}, "properties": {"nom": "HUANCANO", "cate": "CO", "lat": -13.60118, "lon": -75.62102, "ico": "M", "cod": "113009", "cod_old": "000639", "estado": "DIFERIDO"}}, {"type": "Feature", "geometry": {"type": "Point", "coordinates": [-75.1035, -11.9873]}, "properties": {"nom": "ACOPALCA", "cate": "CO", "lat": -11.9873, "lon": -75.1035, "ico": "M", "cod": "111174", "cod_old": "111174", "estado": "DIFERIDO"}}, {"type": "Feature", "geometry": {"type": "Point", "coordinates": [-75.2404, -12.0521]}, "properties": {"nom": "PUENTE BRE\u00c3\u2018A", "cate": "PLU", "lat": -12.0521, "lon": -75.2404, "ico": "M", "cod": "112263", "cod_old": "112263", "estado": "DIFERIDO"}}, {"type": "Feature", "geometry": {"type": "Point", "coordinates": [-75.3348, -11.2091]}, "properties": {"nom": "RIO TULUMAYO", "cate": "PLU", "lat": -11.2091, "lon": -75.3348, "ico": "M", "cod": "111281", "cod_old": "111281", "estado": "DIFERIDO"}}, {"type": "Feature", "geometry": {"type": "Point", "coordinates": [-74.3051, -11.1467]}, "properties": {"nom": "PUERTO OCOPA", "cate": "CO", "lat": -11.1467, "lon": -74.3051, "ico": "M", "cod": "111039", "cod_old": "000572", "estado": "DIFERIDO"}}, {"type": "Feature", "geometry": {"type": "Point", "coordinates": [-76.32569, -11.1865]}, "properties": {"nom": "RIO PALLANGA", "cate": "HLM", "lat": -11.1865, "lon": -76.32569, "ico": "H", "cod": "230801", "cod_old": "230902", "estado": "DIFERIDO"}}, {"type": "Feature", "geometry": {"type": "Point", "coordinates": [-76.10639, -11.69886]}, "properties": {"nom": "RUMICHACA", "cate": "HLM", "lat": -11.69886, "lon": -76.10639, "ico": "H", "cod": "230803", "cod_old": "230908", "estado": "DIFERIDO"}}, {"type": "Feature", "geometry": {"type": "Point", "coordinates": [-76.08333, -11.66667]}, "properties": {"nom": "YAULI", "cate": "PLU", "lat": -11.66667, "lon": -76.08333, "ico": "M", "cod": "111099", "cod_old": "155235", "estado": "DIFERIDO"}}, {"type": "Feature", "geometry": {"type": "Point", "coordinates": [-78.48607, -8.04229]}, "properties": {"nom": "JULCAN", "cate": "PLU", "lat": -8.04229, "lon": -78.48607, "ico": "M", "cod": "108043", "cod_old": "154101", "estado": "DIFERIDO"}}, {"type": "Feature", "geometry": {"type": "Point", "coordinates": [-79.4191, -7.28005]}, "properties": {"nom": "TALLA (GUADALUPE)", "cate": "CP", "lat": -7.28005, "lon": -79.4191, "ico": "M", "cod": "100136", "cod_old": "000325", "estado": "DIFERIDO"}}, {"type": "Feature", "geometry": {"type": "Point", "coordinates": [-78.0681, -7.9375]}, "properties": {"nom": "HUANGACOCHA", "cate": "PLU", "lat": -7.9375, "lon": -78.0681, "ico": "M", "cod": "107092", "cod_old": "153327", "estado": "DIFERIDO"}}, {"type": "Feature", "geometry": {"type": "Point", "coordinates": [-78.06705, -7.9325]}, "properties": {"nom": "LAGUNA HUANGACOCHA", "cate": "HLM", "lat": -7.9325, "lon": -78.06705, "ico": "H", "cod": "220204", "cod_old": "220204", "estado": "DIFERIDO"}}, {"type": "Feature", "geometry": {"type": "Point", "coordinates": [-77.95397, -8.19137]}, "properties": {"nom": "MOLLEPATA", "cate": "PE", "lat": -8.19137, "lon": -77.95397, "ico": "M", "cod": "108046", "cod_old": "154106", "estado": "DIFERIDO"}}, {"type": "Feature", "geometry": {"type": "Point", "coordinates": [-78.2937, -8.1221]}, "properties": {"nom": "HUACAMARCANGA", "cate": "PE", "lat": -8.1221, "lon": -78.2937, "ico": "M", "cod": "108048", "cod_old": "154112", "estado": "DIFERIDO"}}, {"type": "Feature", "geometry": {"type": "Point", "coordinates": [-78.2876, -8.1081]}, "properties": {"nom": "HUACAMARCANGA", "cate": "HLM", "lat": -8.1081, "lon": -78.2876, "ico": "H", "cod": "201717", "cod_old": "201717", "estado": "DIFERIDO"}}, {"type": "Feature", "geometry": {"type": "Point", "coordinates": [-78.30791, -8.00422]}, "properties": {"nom": "QUIRUVILCA", "cate": "PLU", "lat": -8.00422, "lon": -78.30791, "ico": "M", "cod": "108044", "cod_old": "154102", "estado": "DIFERIDO"}}, {"type": "Feature", "geometry": {"type": "Point", "coordinates": [-79.4279, -6.65493]}, "properties": {"nom": "TINAJONES", "cate": "CP", "lat": -6.65493, "lon": -79.4279, "ico": "M", "cod": "106049", "cod_old": "000335", "estado": "DIFERIDO"}}, {"type": "Feature", "geometry": {"type": "Point", "coordinates": [-79.31806, -6.23389]}, "properties": {"nom": "INCAHUASI", "cate": "CP", "lat": -6.23389, "lon": -79.31806, "ico": "M", "cod": "106037", "cod_old": "000307", "estado": "DIFERIDO"}}, {"type": "Feature", "geometry": {"type": "Point", "coordinates": [-79.4045, -6.1313]}, "properties": {"nom": "CUEVA BLANCA", "cate": "PLU", "lat": -6.1313, "lon": -79.4045, "ico": "M", "cod": "106060", "cod_old": "153102", "estado": "DIFERIDO"}}, {"type": "Feature", "geometry": {"type": "Point", "coordinates": [-79.46951, -6.37361]}, "properties": {"nom": "PUCHACA", "cate": "CO", "lat": -6.37361, "lon": -79.46951, "ico": "M", "cod": "106120", "cod_old": "003114", "estado": "DIFERIDO"}}, {"type": "Feature", "geometry": {"type": "Point", "coordinates": [-79.46697, -6.37317]}, "properties": {"nom": "PUCHACA", "cate": "HLG", "lat": -6.37317, "lon": -79.46697, "ico": "H", "cod": "200801", "cod_old": "200802", "estado": "DIFERIDO"}}, {"type": "Feature", "geometry": {"type": "Point", "coordinates": [-80.20463, -5.92461]}, "properties": {"nom": "CERRO DE ARENA", "cate": "CO", "lat": -5.92461, "lon": -80.20463, "ico": "M", "cod": "105122", "cod_old": "105122", "estado": "DIFERIDO"}}, {"type": "Feature", "geometry": {"type": "Point", "coordinates": [-79.97184, -5.91741]}, "properties": {"nom": "PASAJE SUR", "cate": "CO", "lat": -5.91741, "lon": -79.97184, "ico": "M", "cod": "105121", "cod_old": "105121", "estado": "DIFERIDO"}}, {"type": "Feature", "geometry": {"type": "Point", "coordinates": [-78.80512, -6.37964]}, "properties": {"nom": "CUTERVO", "cate": "CO", "lat": -6.37964, "lon": -78.80512, "ico": "M", "cod": "106057", "estado": "REAL"}}, {"type": "Feature", "geometry": {"type": "Point", "coordinates": [-78.51823, -6.68656]}, "properties": {"nom": "LLAUCANO CORELLAMA", "cate": "HLG", "lat": -6.68656, "lon": -78.51823, "ico": "H", "cod": "221106", "estado": "REAL"}}, {"type": "Feature", "geometry": {"type": "Point", "coordinates": [-78.51834, -6.67655]}, "properties": {"nom": "BAMBAMARCA", "cate": "CP", "lat": -6.67655, "lon": -78.51834, "ico": "M", "cod": "100015", "estado": "REAL"}}, {"type": "Feature", "geometry": {"type": "Point", "coordinates": [-78.77416, -5.67664]}, "properties": {"nom": "JAEN", "cate": "CP", "lat": -5.67664, "lon": -78.77416, "ico": "M", "cod": "105067", "estado": "REAL"}}, {"type": "Feature", "geometry": {"type": "Point", "coordinates": [-78.99512, -5.14708]}, "properties": {"nom": "SAN IGNACIO", "cate": "CO", "lat": -5.14708, "lon": -78.99512, "ico": "M", "cod": "105058", "estado": "REAL"}}, {"type": "Feature", "geometry": {"type": "Point", "coordinates": [-78.89759, -5.3085]}, "properties": {"nom": "CHIRINOS", "cate": "CO", "lat": -5.3085, "lon": -78.89759, "ico": "M", "cod": "105074", "estado": "REAL"}}, {"type": "Feature", "geometry": {"type": "Point", "coordinates": [-79.08862, -4.99953]}, "properties": {"nom": "NAMBALLE", "cate": "CO", "lat": -4.99953, "lon": -79.08862, "ico": "M", "cod": "105107", "estado": "REAL"}}, {"type": "Feature", "geometry": {"type": "Point", "coordinates": [-79.2849, -5.31567]}, "properties": {"nom": "TABACONAS", "cate": "CO", "lat": -5.31567, "lon": -79.2849, "ico": "M", "cod": "105056", "estado": "REAL"}}, {"type": "Feature", "geometry": {"type": "Point", "coordinates": [-78.1727, -7.32249]}, "properties": {"nom": "SAN MARCOS", "cate": "CO", "lat": -7.32249, "lon": -78.1727, "ico": "M", "cod": "107006", "estado": "REAL"}}, {"type": "Feature", "geometry": {"type": "Point", "coordinates": [-78.21262, -7.23687]}, "properties": {"nom": "SONDOR-MATARA", "cate": "CO", "lat": -7.23687, "lon": -78.21262, "ico": "M", "cod": "107038", "estado": "REAL"}}, {"type": "Feature", "geometry": {"type": "Point", "coordinates": [-78.85308, -6.99684]}, "properties": {"nom": "SAN MIGUEL", "cate": "CO", "lat": -6.99684, "lon": -78.85308, "ico": "M", "cod": "106038", "estado": "REAL"}}, {"type": "Feature", "geometry": {"type": "Point", "coordinates": [-78.744, -6.82275]}, "properties": {"nom": "QUILCATE", "cate": "CO", "lat": -6.82275, "lon": -78.744, "ico": "M", "cod": "106039", "estado": "REAL"}}, {"type": "Feature", "geometry": {"type": "Point", "coordinates": [-78.81119, -6.97833]}, "properties": {"nom": "LLAPA", "cate": "CO", "lat": -6.97833, "lon": -78.81119, "ico": "M", "cod": "106019", "estado": "REAL"}}, {"type": "Feature", "geometry": {"type": "Point", "coordinates": [-79.12902, -6.92511]}, "properties": {"nom": "NIEPOS", "cate": "CO", "lat": -6.92511, "lon": -79.12902, "ico": "M", "cod": "100092", "estado": "REAL"}}, {"type": "Feature", "geometry": {"type": "Point", "coordinates": [-78.83083, -7.11775]}, "properties": {"nom": "SAN PABLO", "cate": "CO", "lat": -7.11775, "lon": -78.83083, "ico": "M", "cod": "107036", "estado": "REAL"}}, {"type": "Feature", "geometry": {"type": "Point", "coordinates": [-78.94761, -6.61657]}, "properties": {"nom": "SANTA CRUZ", "cate": "CO", "lat": -6.61657, "lon": -78.94761, "ico": "M", "cod": "106056", "estado": "REAL"}}, {"type": "Feature", "geometry": {"type": "Point", "coordinates": [-79.09377, -6.81474]}, "properties": {"nom": "UDIMA", "cate": "CO", "lat": -6.81474, "lon": -79.09377, "ico": "M", "cod": "106068", "estado": "REAL"}}, {"type": "Feature", "geometry": {"type": "Point", "coordinates": [-71.87517, -13.55675]}, "properties": {"nom": "GRANJA KAYRA", "cate": "MAP", "lat": -13.55675, "lon": -71.87517, "ico": "M", "cod": "100044", "estado": "REAL"}}, {"type": "Feature", "geometry": {"type": "Point", "coordinates": [-71.68388, -13.92161]}, "properties": {"nom": "ACOMAYO", "cate": "CO", "lat": -13.92161, "lon": -71.68388, "ico": "M", "cod": "113038", "estado": "REAL"}}, {"type": "Feature", "geometry": {"type": "Point", "coordinates": [-71.57258, -14.02781]}, "properties": {"nom": "POMACANCHI", "cate": "CO", "lat": -14.02781, "lon": -71.57258, "ico": "M", "cod": "114046", "estado": "REAL"}}, {"type": "Feature", "geometry": {"type": "Point", "coordinates": [-72.5752, -13.563]}, "properties": {"nom": "PUENTE CUNYAC", "cate": "HLM", "lat": -13.563, "lon": -72.5752, "ico": "H", "cod": "230503", "estado": "REAL"}}, {"type": "Feature", "geometry": {"type": "Point", "coordinates": [-72.21876, -13.47242]}, "properties": {"nom": "ANTA ANCACHURO", "cate": "CO", "lat": -13.47242, "lon": -72.21876, "ico": "M", "cod": "113035", "estado": "REAL"}}, {"type": "Feature", "geometry": {"type": "Point", "coordinates": [-71.85087, -13.41951]}, "properties": {"nom": "PISAC", "cate": "CO", "lat": -13.41951, "lon": -71.85087, "ico": "M", "cod": "100101", "estado": "REAL"}}, {"type": "Feature", "geometry": {"type": "Point", "coordinates": [-71.8539, -13.4226]}, "properties": {"nom": "PISAC", "cate": "HLM", "lat": -13.4226, "lon": -71.8539, "ico": "H", "cod": "250303", "estado": "REAL"}}, {"type": "Feature", "geometry": {"type": "Point", "coordinates": [-72.2785, -12.6788]}, "properties": {"nom": "QUEBRADA YANATILE", "cate": "CO", "lat": -12.6788, "lon": -72.2785, "ico": "M", "cod": "112154", "estado": "REAL"}}, {"type": "Feature", "geometry": {"type": "Point", "coordinates": [-71.2367, -14.23736]}, "properties": {"nom": "SICUANI", "cate": "CO", "lat": -14.23736, "lon": -71.2367, "ico": "M", "cod": "114033", "estado": "REAL"}}, {"type": "Feature", "geometry": {"type": "Point", "coordinates": [-71.23172, -14.16963]}, "properties": {"nom": "SALCCA", "cate": "HLM", "lat": -14.16963, "lon": -71.23172, "ico": "H", "cod": "250308", "estado": "REAL"}}, {"type": "Feature", "geometry": {"type": "Point", "coordinates": [-72.08774, -14.39878]}, "properties": {"nom": "SANTO TOMAS", "cate": "CO", "lat": -14.39878, "lon": -72.08774, "ico": "M", "cod": "114030", "estado": "REAL"}}, {"type": "Feature", "geometry": {"type": "Point", "coordinates": [-72.0881, -14.39994]}, "properties": {"nom": "PUENTE COLCA", "cate": "HLM", "lat": -14.39994, "lon": -72.0881, "ico": "H", "cod": "230502", "estado": "REAL"}}, {"type": "Feature", "geometry": {"type": "Point", "coordinates": [-72.69174, -12.85645]}, "properties": {"nom": "QUILLABAMBA", "cate": "CP", "lat": -12.85645, "lon": -72.69174, "ico": "M", "cod": "112036", "estado": "REAL"}}, {"type": "Feature", "geometry": {"type": "Point", "coordinates": [-71.8447, -13.76698]}, "properties": {"nom": "PARURO", "cate": "CO", "lat": -13.76698, "lon": -71.8447, "ico": "M", "cod": "113037", "estado": "REAL"}}, {"type": "Feature", "geometry": {"type": "Point", "coordinates": [-71.5974, -13.3177]}, "properties": {"nom": "PAUCARTAMBO", "cate": "HLG", "lat": -13.3177, "lon": -71.5974, "ico": "H", "cod": "250405", "estado": "REAL"}}, {"type": "Feature", "geometry": {"type": "Point", "coordinates": [-71.59668, -13.30347]}, "properties": {"nom": "PAUCARTAMBO", "cate": "CO", "lat": -13.30347, "lon": -71.59668, "ico": "M", "cod": "100100", "estado": "REAL"}}, {"type": "Feature", "geometry": {"type": "Point", "coordinates": [-71.7203, -13.10677]}, "properties": {"nom": "CHACLLABAMBA", "cate": "HLM", "lat": -13.10677, "lon": -71.7203, "ico": "H", "cod": "250301", "estado": "REAL"}}, {"type": "Feature", "geometry": {"type": "Point", "coordinates": [-71.64938, -13.21754]}, "properties": {"nom": "CHALLABAMBA", "cate": "CO", "lat": -13.21754, "lon": -71.64938, "ico": "M", "cod": "100024", "estado": "REAL"}}, {"type": "Feature", "geometry": {"type": "Point", "coordinates": [-71.67336, -13.36313]}, "properties": {"nom": "COLQUEPATA", "cate": "CO", "lat": -13.36313, "lon": -71.67336, "ico": "M", "cod": "113116", "estado": "REAL"}}, {"type": "Feature", "geometry": {"type": "Point", "coordinates": [-71.69581, -13.59999]}, "properties": {"nom": "CAY CAY", "cate": "CO", "lat": -13.59999, "lon": -71.69581, "ico": "M", "cod": "113122", "estado": "REAL"}}, {"type": "Feature", "geometry": {"type": "Point", "coordinates": [-70.7544, -13.22893]}, "properties": {"nom": "QUINCEMIL", "cate": "CO", "lat": -13.22893, "lon": -70.7544, "ico": "M", "cod": "100114", "estado": "REAL"}}, {"type": "Feature", "geometry": {"type": "Point", "coordinates": [-71.5601, -13.60988]}, "properties": {"nom": "CCATCCA", "cate": "CO", "lat": -13.60988, "lon": -71.5601, "ico": "M", "cod": "113041", "estado": "REAL"}}, {"type": "Feature", "geometry": {"type": "Point", "coordinates": [-72.12455, -13.30517]}, "properties": {"nom": "URUBAMBA", "cate": "CP", "lat": -13.30517, "lon": -72.12455, "ico": "M", "cod": "113034", "estado": "REAL"}}, {"type": "Feature", "geometry": {"type": "Point", "coordinates": [-72.54585, -13.16655]}, "properties": {"nom": "MACHU PICCHU", "cate": "CO", "lat": -13.16655, "lon": -72.54585, "ico": "M", "cod": "113031", "estado": "REAL"}}, {"type": "Feature", "geometry": {"type": "Point", "coordinates": [-75.08412, -12.39939]}, "properties": {"nom": "PILCHACA", "cate": "CO", "lat": -12.39939, "lon": -75.08412, "ico": "M", "cod": "112060", "estado": "REAL"}}, {"type": "Feature", "geometry": {"type": "Point", "coordinates": [-74.5616, -12.84361]}, "properties": {"nom": "ACOBAMBA", "cate": "CO", "lat": -12.84361, "lon": -74.5616, "ico": "M", "cod": "112067", "estado": "REAL"}}, {"type": "Feature", "geometry": {"type": "Point", "coordinates": [-74.7181, -12.9815]}, "properties": {"nom": "LIRCAY", "cate": "CO", "lat": -12.9815, "lon": -74.7181, "ico": "M", "cod": "112065", "estado": "REAL"}}, {"type": "Feature", "geometry": {"type": "Point", "coordinates": [-75.4, -13.78333]}, "properties": {"nom": "CHALLACA", "cate": "HLM", "lat": -13.78333, "lon": -75.4, "ico": "H", "cod": "213502", "estado": "REAL"}}, {"type": "Feature", "geometry": {"type": "Point", "coordinates": [-75.05725, -12.36079]}, "properties": {"nom": "ACOSTAMBO", "cate": "CO", "lat": -12.36079, "lon": -75.05725, "ico": "M", "cod": "112051", "estado": "REAL"}}, {"type": "Feature", "geometry": {"type": "Point", "coordinates": [-74.88414, -12.40203]}, "properties": {"nom": "PAMPAS", "cate": "CO", "lat": -12.40203, "lon": -74.88414, "ico": "M", "cod": "112012", "estado": "REAL"}}, {"type": "Feature", "geometry": {"type": "Point", "coordinates": [-74.6835, -12.415]}, "properties": {"nom": "COLCABAMBA", "cate": "CO", "lat": -12.415, "lon": -74.6835, "ico": "M", "cod": "112163", "estado": "REAL"}}, {"type": "Feature", "geometry": {"type": "Point", "coordinates": [-74.7794, -12.204]}, "properties": {"nom": "SALCABAMBA", "cate": "CO", "lat": -12.204, "lon": -74.7794, "ico": "M", "cod": "100120", "estado": "REAL"}}, {"type": "Feature", "geometry": {"type": "Point", "coordinates": [-76.30962, -9.92095]}, "properties": {"nom": "CANCHAN", "cate": "CO", "lat": -9.92095, "lon": -76.30962, "ico": "M", "cod": "100020", "estado": "REAL"}}, {"type": "Feature", "geometry": {"type": "Point", "coordinates": [-76.30938, -9.9222]}, "properties": {"nom": "PUENTE HIGUERAS", "cate": "HLM", "lat": -9.9222, "lon": -76.30938, "ico": "H", "cod": "221811", "estado": "REAL"}}, {"type": "Feature", "geometry": {"type": "Point", "coordinates": [-76.24856, -9.95201]}, "properties": {"nom": "HUANUCO", "cate": "CP", "lat": -9.95201, "lon": -76.24856, "ico": "M", "cod": "109003", "estado": "REAL"}}, {"type": "Feature", "geometry": {"type": "Point", "coordinates": [-76.1824, -10.3399]}, "properties": {"nom": "SAN RAFAEL", "cate": "HLM", "lat": -10.3399, "lon": -76.1824, "ico": "H", "cod": "221309", "estado": "REAL"}}, {"type": "Feature", "geometry": {"type": "Point", "coordinates": [-76.17658, -10.32926]}, "properties": {"nom": "SAN RAFAEL", "cate": "CO", "lat": -10.32926, "lon": -76.17658, "ico": "M", "cod": "110025", "estado": "REAL"}}, {"type": "Feature", "geometry": {"type": "Point", "coordinates": [-76.77361, -9.71694]}, "properties": {"nom": "DOS DE MAYO", "cate": "CO", "lat": -9.71694, "lon": -76.77361, "ico": "M", "cod": "109077", "estado": "REAL"}}, {"type": "Feature", "geometry": {"type": "Point", "coordinates": [-76.00049, -9.31016]}, "properties": {"nom": "TINGO MARIA", "cate": "CP", "lat": -9.31016, "lon": -76.00049, "ico": "M", "cod": "109027", "estado": "REAL"}}, {"type": "Feature", "geometry": {"type": "Point", "coordinates": [-75.81393, -9.20091]}, "properties": {"nom": "LA DIVISORIA", "cate": "CO", "lat": -9.20091, "lon": -75.81393, "ico": "M", "cod": "108025", "estado": "REAL"}}, {"type": "Feature", "geometry": {"type": "Point", "coordinates": [-76.11171, -8.92987]}, "properties": {"nom": "AUCAYACU", "cate": "CO", "lat": -8.92987, "lon": -76.11171, "ico": "M", "cod": "108033", "estado": "REAL"}}, {"type": "Feature", "geometry": {"type": "Point", "coordinates": [-76.00944, -9.14706]}, "properties": {"nom": "TULUMAYO", "cate": "MAP", "lat": -9.14706, "lon": -76.00944, "ico": "M", "cod": "109028", "estado": "REAL"}}, {"type": "Feature", "geometry": {"type": "Point", "coordinates": [-75.90706, -9.85008]}, "properties": {"nom": "CHAGLLA", "cate": "CO", "lat": -9.85008, "lon": -75.90706, "ico": "M", "cod": "109021", "estado": "REAL"}}, {"type": "Feature", "geometry": {"type": "Point", "coordinates": [-74.95028, -9.36694]}, "properties": {"nom": "PUERTO INCA", "cate": "HLM", "lat": -9.36694, "lon": -74.95028, "ico": "H", "cod": "231101", "estado": "REAL"}}, {"type": "Feature", "geometry": {"type": "Point", "coordinates": [-74.96376, -9.3851]}, "properties": {"nom": "PUERTO INCA", "cate": "CO", "lat": -9.3851, "lon": -74.96376, "ico": "M", "cod": "109032", "estado": "REAL"}}, {"type": "Feature", "geometry": {"type": "Point", "coordinates": [-74.70882, -8.92749]}, "properties": {"nom": "TOURNAVISTA", "cate": "CO", "lat": -8.92749, "lon": -74.70882, "ico": "M", "cod": "108034", "estado": "REAL"}}, {"type": "Feature", "geometry": {"type": "Point", "coordinates": [-76.50094, -9.88474]}, "properties": {"nom": "JACAS CHICO", "cate": "CO", "lat": -9.88474, "lon": -76.50094, "ico": "M", "cod": "109022", "estado": "REAL"}}, {"type": "Feature", "geometry": {"type": "Point", "coordinates": [-75.72052, -13.99978]}, "properties": {"nom": "TACAMA", "cate": "CO", "lat": -13.99978, "lon": -75.72052, "ico": "M", "cod": "113058", "estado": "REAL"}}, {"type": "Feature", "geometry": {"type": "Point", "coordinates": [-75.68208, -14.37844]}, "properties": {"nom": "OCUCAJE", "cate": "CO", "lat": -14.37844, "lon": -75.68208, "ico": "M", "cod": "114020", "estado": "REAL"}}, {"type": "Feature", "geometry": {"type": "Point", "coordinates": [-75.71101, -14.07331]}, "properties": {"nom": "SAN CAMILO", "cate": "MAP", "lat": -14.07331, "lon": -75.71101, "ico": "M", "cod": "114008", "estado": "REAL"}}, {"type": "Feature", "geometry": {"type": "Point", "coordinates": [-75.67869, -13.92475]}, "properties": {"nom": "LOS MOLINOS (ALEJANDRO PLAZA GARCIA)", "cate": "HLG", "lat": -13.92475, "lon": -75.67869, "ico": "H", "cod": "213500", "estado": "REAL"}}, {"type": "Feature", "geometry": {"type": "Point", "coordinates": [-75.60704, -13.843]}, "properties": {"nom": "HUAMANI", "cate": "CO", "lat": -13.843, "lon": -75.60704, "ico": "M", "cod": "113010", "estado": "REAL"}}, {"type": "Feature", "geometry": {"type": "Point", "coordinates": [-76.13425, -13.45781]}, "properties": {"nom": "FONAGRO (CHINCHA)", "cate": "MAP", "lat": -13.45781, "lon": -76.13425, "ico": "M", "cod": "100043", "estado": "REAL"}}, {"type": "Feature", "geometry": {"type": "Point", "coordinates": [-75.78697, -13.21058]}, "properties": {"nom": "SAN JUAN DE YANAC", "cate": "CO", "lat": -13.21058, "lon": -75.78697, "ico": "M", "cod": "113081", "estado": "REAL"}}, {"type": "Feature", "geometry": {"type": "Point", "coordinates": [-75.6464, -13.0479]}, "properties": {"nom": "SAN PEDRO DE HUACARPANA", "cate": "CO", "lat": -13.0479, "lon": -75.6464, "ico": "M", "cod": "113061", "estado": "REAL"}}, {"type": "Feature", "geometry": {"type": "Point", "coordinates": [-74.95588, -14.63201]}, "properties": {"nom": "HUALLPOCA", "cate": "HLG", "lat": -14.63201, "lon": -74.95588, "ico": "H", "cod": "230712", "estado": "REAL"}}, {"type": "Feature", "geometry": {"type": "Point", "coordinates": [-74.89082, -14.97501]}, "properties": {"nom": "COPARA", "cate": "CP", "lat": -14.97501, "lon": -74.89082, "ico": "M", "cod": "114018", "estado": "REAL"}}, {"type": "Feature", "geometry": {"type": "Point", "coordinates": [-75.18926, -14.54939]}, "properties": {"nom": "PALPA", "cate": "CO", "lat": -14.54939, "lon": -75.18926, "ico": "M", "cod": "114021", "estado": "REAL"}}, {"type": "Feature", "geometry": {"type": "Point", "coordinates": [-71.09062, -15.84266]}, "properties": {"nom": "IMATA", "cate": "CO", "lat": -15.84266, "lon": -71.09062, "ico": "M", "cod": "115029", "estado": "REAL"}}, {"type": "Feature", "geometry": {"type": "Point", "coordinates": [-71.45696, -15.4892]}, "properties": {"nom": "SIBAYO", "cate": "CO", "lat": -15.4892, "lon": -71.45696, "ico": "M", "cod": "115024", "estado": "REAL"}}, {"type": "Feature", "geometry": {"type": "Point", "coordinates": [-72.65065, -15.84602]}, "properties": {"nom": "CHUQUIBAMBA", "cate": "CO", "lat": -15.84602, "lon": -72.65065, "ico": "M", "cod": "115020", "estado": "REAL"}}, {"type": "Feature", "geometry": {"type": "Point", "coordinates": [-72.83202, -15.50294]}, "properties": {"nom": "SALAMANCA", "cate": "CO", "lat": -15.50294, "lon": -72.83202, "ico": "M", "cod": "115043", "estado": "REAL"}}, {"type": "Feature", "geometry": {"type": "Point", "coordinates": [-71.63879, -16.99936]}, "properties": {"nom": "LA PASCANA", "cate": "HLG", "lat": -16.99936, "lon": -71.63879, "ico": "H", "cod": "204905", "estado": "REAL"}}, {"type": "Feature", "geometry": {"type": "Point", "coordinates": [-71.7245, -17.0716]}, "properties": {"nom": "PAMPA BLANCA", "cate": "CP", "lat": -17.0716, "lon": -71.7245, "ico": "M", "cod": "117005", "estado": "REAL"}}, {"type": "Feature", "geometry": {"type": "Point", "coordinates": [-72.89325, -15.21134]}, "properties": {"nom": "COTAHUASI", "cate": "CO", "lat": -15.21134, "lon": -72.89325, "ico": "M", "cod": "115019", "estado": "REAL"}}, {"type": "Feature", "geometry": {"type": "Point", "coordinates": [-73.82791, -13.43453]}, "properties": {"nom": "MARCELINO SERNA (PAMPAS)", "cate": "HLG", "lat": -13.43453, "lon": -73.82791, "ico": "H", "cod": "251001", "estado": "REAL"}}, {"type": "Feature", "geometry": {"type": "Point", "coordinates": [-74.21651, -13.0765]}, "properties": {"nom": "WAYLLAPAMPA", "cate": "CO", "lat": -13.0765, "lon": -74.21651, "ico": "M", "cod": "112069", "estado": "REAL"}}, {"type": "Feature", "geometry": {"type": "Point", "coordinates": [-74.14159, -13.05548]}, "properties": {"nom": "LA QUINUA", "cate": "CO", "lat": -13.05548, "lon": -74.14159, "ico": "M", "cod": "113021", "estado": "REAL"}}, {"type": "Feature", "geometry": {"type": "Point", "coordinates": [-74.39067, -13.08742]}, "properties": {"nom": "SAN PEDRO DE CACHI", "cate": "CO", "lat": -13.08742, "lon": -74.39067, "ico": "M", "cod": "100127", "estado": "REAL"}}, {"type": "Feature", "geometry": {"type": "Point", "coordinates": [-74.1316, -14.69928]}, "properties": {"nom": "PUQUIO", "cate": "CO", "lat": -14.69928, "lon": -74.1316, "ico": "M", "cod": "114023", "estado": "REAL"}}, {"type": "Feature", "geometry": {"type": "Point", "coordinates": [-74.941, -14.1324]}, "properties": {"nom": "HUAC-HUAS", "cate": "CO", "lat": -14.1324, "lon": -74.941, "ico": "M", "cod": "114055", "estado": "REAL"}}, {"type": "Feature", "geometry": {"type": "Point", "coordinates": [-74.92135, -14.23998]}, "properties": {"nom": "LLAUTA", "cate": "HLG", "lat": -14.23998, "lon": -74.92135, "ico": "H", "cod": "213600", "estado": "REAL"}}, {"type": "Feature", "geometry": {"type": "Point", "coordinates": [-73.77945, -15.01194]}, "properties": {"nom": "CORACORA", "cate": "CO", "lat": -15.01194, "lon": -73.77945, "ico": "M", "cod": "115015", "estado": "REAL"}}, {"type": "Feature", "geometry": {"type": "Point", "coordinates": [-73.3411, -15.2753]}, "properties": {"nom": "PAUZA", "cate": "CO", "lat": -15.2753, "lon": -73.3411, "ico": "M", "cod": "115017", "estado": "REAL"}}, {"type": "Feature", "geometry": {"type": "Point", "coordinates": [-73.6386, -14.0439]}, "properties": {"nom": "PAUCARAY", "cate": "CO", "lat": -14.0439, "lon": -73.6386, "ico": "M", "cod": "114044", "estado": "REAL"}}, {"type": "Feature", "geometry": {"type": "Point", "coordinates": [-74.0681, -13.749]}, "properties": {"nom": "HUANCAPI", "cate": "CO", "lat": -13.749, "lon": -74.0681, "ico": "M", "cod": "113022", "estado": "REAL"}}, {"type": "Feature", "geometry": {"type": "Point", "coordinates": [-73.95238, -13.66882]}, "properties": {"nom": "VILCASHUAMAN", "cate": "CO", "lat": -13.66882, "lon": -73.95238, "ico": "M", "cod": "113100", "estado": "REAL"}}, {"type": "Feature", "geometry": {"type": "Point", "coordinates": [-78.47833, -7.165]}, "properties": {"nom": "MASHCON", "cate": "HLG", "lat": -7.165, "lon": -78.47833, "ico": "H", "cod": "220213", "estado": "REAL"}}, {"type": "Feature", "geometry": {"type": "Point", "coordinates": [-78.6334, -7.03753]}, "properties": {"nom": "GRANJA PORCON", "cate": "CO", "lat": -7.03753, "lon": -78.6334, "ico": "M", "cod": "107002", "estado": "REAL"}}, {"type": "Feature", "geometry": {"type": "Point", "coordinates": [-78.49309, -7.1675]}, "properties": {"nom": "AUGUSTO WEBERBAUER", "cate": "MAP", "lat": -7.1675, "lon": -78.49309, "ico": "M", "cod": "107028", "estado": "REAL"}}, {"type": "Feature", "geometry": {"type": "Point", "coordinates": [-78.51582, -7.32604]}, "properties": {"nom": "ASUNCION", "cate": "CO", "lat": -7.32604, "lon": -78.51582, "ico": "M", "cod": "107018", "estado": "REAL"}}, {"type": "Feature", "geometry": {"type": "Point", "coordinates": [-78.54106, -7.42857]}, "properties": {"nom": "COSPAN", "cate": "CO", "lat": -7.42857, "lon": -78.54106, "ico": "M", "cod": "100037", "estado": "REAL"}}, {"type": "Feature", "geometry": {"type": "Point", "coordinates": [-78.33314, -7.12327]}, "properties": {"nom": "LA ENCA\u00c3\u2018ADA", "cate": "CO", "lat": -7.12327, "lon": -78.33314, "ico": "M", "cod": "107093", "estado": "REAL"}}, {"type": "Feature", "geometry": {"type": "Point", "coordinates": [-78.40376, -7.22064]}, "properties": {"nom": "JESUS TUNEL", "cate": "HLG", "lat": -7.22064, "lon": -78.40376, "ico": "H", "cod": "220205", "estado": "REAL"}}, {"type": "Feature", "geometry": {"type": "Point", "coordinates": [-78.38841, -7.2457]}, "properties": {"nom": "JESUS", "cate": "CO", "lat": -7.2457, "lon": -78.38841, "ico": "M", "cod": "107016", "estado": "REAL"}}, {"type": "Feature", "geometry": {"type": "Point", "coordinates": [-78.29472, -7.24262]}, "properties": {"nom": "NAMORA BOCATOMA", "cate": "HLG", "lat": -7.24262, "lon": -78.29472, "ico": "H", "cod": "220206", "estado": "REAL"}}, {"type": "Feature", "geometry": {"type": "Point", "coordinates": [-78.65261, -7.25346]}, "properties": {"nom": "MAGDALENA", "cate": "CO", "lat": -7.25346, "lon": -78.65261, "ico": "M", "cod": "107017", "estado": "REAL"}}, {"type": "Feature", "geometry": {"type": "Point", "coordinates": [-78.32782, -7.2006]}, "properties": {"nom": "NAMORA", "cate": "CO", "lat": -7.2006, "lon": -78.32782, "ico": "M", "cod": "107037", "estado": "REAL"}}, {"type": "Feature", "geometry": {"type": "Point", "coordinates": [-78.49106, -7.29756]}, "properties": {"nom": "SAN JUAN", "cate": "CO", "lat": -7.29756, "lon": -78.49106, "ico": "M", "cod": "107005", "estado": "REAL"}}, {"type": "Feature", "geometry": {"type": "Point", "coordinates": [-78.05131, -7.62166]}, "properties": {"nom": "CAJABAMBA", "cate": "CO", "lat": -7.62166, "lon": -78.05131, "ico": "M", "cod": "107008", "estado": "REAL"}}, {"type": "Feature", "geometry": {"type": "Point", "coordinates": [-78.26855, -7.45106]}, "properties": {"nom": "CACHACHI", "cate": "PE", "lat": -7.45106, "lon": -78.26855, "ico": "M", "cod": "107068", "estado": "REAL"}}, {"type": "Feature", "geometry": {"type": "Point", "coordinates": [-78.11313, -7.46354]}, "properties": {"nom": "PUENTE CRISNEJAS", "cate": "HLM", "lat": -7.46354, "lon": -78.11313, "ico": "H", "cod": "220201", "estado": "REAL"}}, {"type": "Feature", "geometry": {"type": "Point", "coordinates": [-78.14485, -6.85292]}, "properties": {"nom": "CELENDIN", "cate": "CO", "lat": -6.85292, "lon": -78.14485, "ico": "M", "cod": "106010", "estado": "REAL"}}, {"type": "Feature", "geometry": {"type": "Point", "coordinates": [-78.03024, -6.84465]}, "properties": {"nom": "BALZAS", "cate": "HLM", "lat": -6.84465, "lon": -78.03024, "ico": "H", "cod": "221303", "estado": "REAL"}}, {"type": "Feature", "geometry": {"type": "Point", "coordinates": [-78.64863, -6.54713]}, "properties": {"nom": "CHOTA", "cate": "CO", "lat": -6.54713, "lon": -78.64863, "ico": "M", "cod": "106034", "estado": "REAL"}}, {"type": "Feature", "geometry": {"type": "Point", "coordinates": [-78.8886, -6.46009]}, "properties": {"nom": "COCHABAMBA", "cate": "CO", "lat": -6.46009, "lon": -78.8886, "ico": "M", "cod": "106058", "estado": "REAL"}}, {"type": "Feature", "geometry": {"type": "Point", "coordinates": [-78.96315, -6.45368]}, "properties": {"nom": "HUAMBOS", "cate": "CP", "lat": -6.45368, "lon": -78.96315, "ico": "M", "cod": "106054", "estado": "REAL"}}, {"type": "Feature", "geometry": {"type": "Point", "coordinates": [-78.74111, -6.55972]}, "properties": {"nom": "CHOTANO LAJAS", "cate": "HLG", "lat": -6.55972, "lon": -78.74111, "ico": "H", "cod": "220611", "estado": "REAL"}}, {"type": "Feature", "geometry": {"type": "Point", "coordinates": [-79.12262, -6.51443]}, "properties": {"nom": "LLAMA", "cate": "CO", "lat": -6.51443, "lon": -79.12262, "ico": "M", "cod": "106053", "estado": "REAL"}}, {"type": "Feature", "geometry": {"type": "Point", "coordinates": [-79.3557, -6.4101]}, "properties": {"nom": "TOCMOCHE", "cate": "CO", "lat": -6.4101, "lon": -79.3557, "ico": "M", "cod": "106061", "estado": "REAL"}}, {"type": "Feature", "geometry": {"type": "Point", "coordinates": [-78.82273, -7.36521]}, "properties": {"nom": "CONTUMAZA", "cate": "CO", "lat": -7.36521, "lon": -78.82273, "ico": "M", "cod": "107052", "estado": "REAL"}}, {"type": "Feature", "geometry": {"type": "Point", "coordinates": [-78.83799, -7.21969]}, "properties": {"nom": "PUENTE CHILETE", "cate": "HLG", "lat": -7.21969, "lon": -78.83799, "ico": "H", "cod": "201207", "estado": "REAL"}}, {"type": "Feature", "geometry": {"type": "Point", "coordinates": [-78.83799, -7.21968]}, "properties": {"nom": "CHILETE", "cate": "PLU", "lat": -7.21968, "lon": -78.83799, "ico": "M", "cod": "107058", "estado": "REAL"}}, {"type": "Feature", "geometry": {"type": "Point", "coordinates": [-78.92673, -7.42819]}, "properties": {"nom": "SAN BENITO", "cate": "CO", "lat": -7.42819, "lon": -78.92673, "ico": "M", "cod": "107057", "estado": "REAL"}}, {"type": "Feature", "geometry": {"type": "Point", "coordinates": [-78.16232, -10.06812]}, "properties": {"nom": "HUARMEY", "cate": "CO", "lat": -10.06812, "lon": -78.16232, "ico": "M", "cod": "110016", "estado": "REAL"}}, {"type": "Feature", "geometry": {"type": "Point", "coordinates": [-77.65519, -9.92723]}, "properties": {"nom": "MALVAS", "cate": "CO", "lat": -9.92723, "lon": -77.65519, "ico": "M", "cod": "109038", "estado": "REAL"}}, {"type": "Feature", "geometry": {"type": "Point", "coordinates": [-77.35072, -8.87045]}, "properties": {"nom": "PISCOBAMBA II", "cate": "CO", "lat": -8.87045, "lon": -77.35072, "ico": "M", "cod": "108103", "estado": "REAL"}}, {"type": "Feature", "geometry": {"type": "Point", "coordinates": [-78.00461, -8.39058]}, "properties": {"nom": "CABANA", "cate": "CP", "lat": -8.39058, "lon": -78.00461, "ico": "M", "cod": "108064", "estado": "REAL"}}, {"type": "Feature", "geometry": {"type": "Point", "coordinates": [-77.45733, -8.8217]}, "properties": {"nom": "POMABAMBA", "cate": "CO", "lat": -8.8217, "lon": -77.45733, "ico": "M", "cod": "108017", "estado": "REAL"}}, {"type": "Feature", "geometry": {"type": "Point", "coordinates": [-77.45365, -9.72919]}, "properties": {"nom": "RECUAY", "cate": "CO", "lat": -9.72919, "lon": -77.45365, "ico": "M", "cod": "109017", "estado": "REAL"}}, {"type": "Feature", "geometry": {"type": "Point", "coordinates": [-77.86712, -6.2083]}, "properties": {"nom": "CHACHAPOYAS", "cate": "CO", "lat": -6.2083, "lon": -77.86712, "ico": "M", "cod": "106011", "estado": "REAL"}}, {"type": "Feature", "geometry": {"type": "Point", "coordinates": [-78.43553, -5.41994]}, "properties": {"nom": "ARAMANGO", "cate": "CO", "lat": -5.41994, "lon": -78.43553, "ico": "M", "cod": "105075", "estado": "REAL"}}, {"type": "Feature", "geometry": {"type": "Point", "coordinates": [-77.97569, -5.94485]}, "properties": {"nom": "JAZAN", "cate": "CO", "lat": -5.94485, "lon": -77.97569, "ico": "M", "cod": "105079", "estado": "REAL"}}, {"type": "Feature", "geometry": {"type": "Point", "coordinates": [-78.43154, -5.75568]}, "properties": {"nom": "LOS NARANJOS", "cate": "HLG", "lat": -5.75568, "lon": -78.43154, "ico": "H", "cod": "221501", "estado": "REAL"}}, {"type": "Feature", "geometry": {"type": "Point", "coordinates": [-78.53396, -5.66148]}, "properties": {"nom": "BAGUA CHICA", "cate": "CP", "lat": -5.66148, "lon": -78.53396, "ico": "M", "cod": "105068", "estado": "REAL"}}, {"type": "Feature", "geometry": {"type": "Point", "coordinates": [-78.2339, -5.8927]}, "properties": {"nom": "JAMALCA", "cate": "CO", "lat": -5.8927, "lon": -78.2339, "ico": "M", "cod": "105042", "estado": "REAL"}}, {"type": "Feature", "geometry": {"type": "Point", "coordinates": [-77.74136, -9.63204]}, "properties": {"nom": "CAJAMARQUILLA", "cate": "CO", "lat": -9.63204, "lon": -77.74136, "ico": "M", "cod": "109046", "estado": "REAL"}}, {"type": "Feature", "geometry": {"type": "Point", "coordinates": [-77.88761, -9.55239]}, "properties": {"nom": "PARIACOTO", "cate": "CO", "lat": -9.55239, "lon": -77.88761, "ico": "M", "cod": "109040", "estado": "REAL"}}, {"type": "Feature", "geometry": {"type": "Point", "coordinates": [-77.60674, -9.78165]}, "properties": {"nom": "AIJA", "cate": "CO", "lat": -9.78165, "lon": -77.60674, "ico": "M", "cod": "109016", "estado": "REAL"}}, {"type": "Feature", "geometry": {"type": "Point", "coordinates": [-77.15949, -10.14763]}, "properties": {"nom": "CHIQUIAN", "cate": "CO", "lat": -10.14763, "lon": -77.15949, "ico": "M", "cod": "110018", "estado": "REAL"}}, {"type": "Feature", "geometry": {"type": "Point", "coordinates": [-77.17526, -9.58598]}, "properties": {"nom": "CHAVIN", "cate": "CO", "lat": -9.58598, "lon": -77.17526, "ico": "M", "cod": "109019", "estado": "REAL"}}, {"type": "Feature", "geometry": {"type": "Point", "coordinates": [-77.55872, -10.20739]}, "properties": {"nom": "CHAMANA", "cate": "CO", "lat": -10.20739, "lon": -77.55872, "ico": "M", "cod": "110039", "estado": "REAL"}}, {"type": "Feature", "geometry": {"type": "Point", "coordinates": [-77.65, -8.56667]}, "properties": {"nom": "SIHUAS", "cate": "CO", "lat": -8.56667, "lon": -77.65, "ico": "M", "cod": "108047", "estado": "REAL"}}, {"type": "Feature", "geometry": {"type": "Point", "coordinates": [-77.74998, -9.14189]}, "properties": {"nom": "YUNGAY", "cate": "CO", "lat": -9.14189, "lon": -77.74998, "ico": "M", "cod": "109018", "estado": "REAL"}}, {"type": "Feature", "geometry": {"type": "Point", "coordinates": [-72.73488, -13.55261]}, "properties": {"nom": "CURAHUASI", "cate": "CP", "lat": -13.55261, "lon": -72.73488, "ico": "M", "cod": "113029", "estado": "REAL"}}, {"type": "Feature", "geometry": {"type": "Point", "coordinates": [-72.8569, -13.6049]}, "properties": {"nom": "GRANJA SAN ANTONIO", "cate": "MAP", "lat": -13.6049, "lon": -72.8569, "ico": "M", "cod": "113225", "estado": "REAL"}}, {"type": "Feature", "geometry": {"type": "Point", "coordinates": [-73.36679, -13.64863]}, "properties": {"nom": "ANDAHUAYLAS", "cate": "CO", "lat": -13.64863, "lon": -73.36679, "ico": "M", "cod": "113025", "estado": "REAL"}}, {"type": "Feature", "geometry": {"type": "Point", "coordinates": [-73.25168, -14.29056]}, "properties": {"nom": "AYMARAES", "cate": "CO", "lat": -14.29056, "lon": -73.25168, "ico": "M", "cod": "114117", "estado": "REAL"}}, {"type": "Feature", "geometry": {"type": "Point", "coordinates": [-72.17522, -13.94492]}, "properties": {"nom": "TAMBOBAMBA", "cate": "CO", "lat": -13.94492, "lon": -72.17522, "ico": "M", "cod": "113059", "estado": "REAL"}}, {"type": "Feature", "geometry": {"type": "Point", "coordinates": [-73.82427, -13.43488]}, "properties": {"nom": "PAMPAS", "cate": "CO", "lat": -13.43488, "lon": -73.82427, "ico": "M", "cod": "113138", "estado": "REAL"}}, {"type": "Feature", "geometry": {"type": "Point", "coordinates": [-72.6669, -14.0628]}, "properties": {"nom": "CURPAHUASI", "cate": "CO", "lat": -14.0628, "lon": -72.6669, "ico": "M", "cod": "114108", "estado": "REAL"}}, {"type": "Feature", "geometry": {"type": "Point", "coordinates": [-71.53453, -16.4138]}, "properties": {"nom": "LA PAMPILLA", "cate": "MAP", "lat": -16.4138, "lon": -71.53453, "ico": "M", "cod": "116017", "estado": "REAL"}}, {"type": "Feature", "geometry": {"type": "Point", "coordinates": [-71.40913, -16.40644]}, "properties": {"nom": "CHIGUATA", "cate": "CO", "lat": -16.40644, "lon": -71.40913, "ico": "M", "cod": "116020", "estado": "REAL"}}, {"type": "Feature", "geometry": {"type": "Point", "coordinates": [-71.56635, -16.45774]}, "properties": {"nom": "HUASACACHE", "cate": "CO", "lat": -16.45774, "lon": -71.56635, "ico": "M", "cod": "116003", "estado": "REAL"}}, {"type": "Feature", "geometry": {"type": "Point", "coordinates": [-71.57431, -16.45992]}, "properties": {"nom": "TINGO GRANDE", "cate": "HLG", "lat": -16.45992, "lon": -71.57431, "ico": "H", "cod": "204708", "estado": "REAL"}}, {"type": "Feature", "geometry": {"type": "Point", "coordinates": [-71.67503, -16.42679]}, "properties": {"nom": "PUENTE DEL DIABLO", "cate": "HLG", "lat": -16.42679, "lon": -71.67503, "ico": "H", "cod": "204707", "estado": "REAL"}}, {"type": "Feature", "geometry": {"type": "Point", "coordinates": [-71.92464, -16.58359]}, "properties": {"nom": "LA JOYA", "cate": "MAP", "lat": -16.58359, "lon": -71.92464, "ico": "M", "cod": "116005", "estado": "REAL"}}, {"type": "Feature", "geometry": {"type": "Point", "coordinates": [-72.69957, -16.54193]}, "properties": {"nom": "HACIENDA PAMPATA", "cate": "HLG", "lat": -16.54193, "lon": -72.69957, "ico": "H", "cod": "204621", "estado": "REAL"}}, {"type": "Feature", "geometry": {"type": "Point", "coordinates": [-73.1145, -16.427]}, "properties": {"nom": "OCO\u00c3\u2018A", "cate": "HLG", "lat": -16.427, "lon": -73.1145, "ico": "H", "cod": "204504", "estado": "REAL"}}, {"type": "Feature", "geometry": {"type": "Point", "coordinates": [-72.70156, -16.64034]}, "properties": {"nom": "CAMANA", "cate": "CO", "lat": -16.64034, "lon": -72.70156, "ico": "M", "cod": "116013", "estado": "REAL"}}, {"type": "Feature", "geometry": {"type": "Point", "coordinates": [-73.36259, -15.77568]}, "properties": {"nom": "CARAVELI", "cate": "CO", "lat": -15.77568, "lon": -73.36259, "ico": "M", "cod": "115018", "estado": "REAL"}}, {"type": "Feature", "geometry": {"type": "Point", "coordinates": [-73.6964, -16.2317]}, "properties": {"nom": "PUNTA ATICO", "cate": "CO", "lat": -16.2317, "lon": -73.6964, "ico": "M", "cod": "116011", "estado": "REAL"}}, {"type": "Feature", "geometry": {"type": "Point", "coordinates": [-73.87089, -15.74765]},